~Version Information
#-------------------
VERS.        2.0: CWLS log ASCII Standart - VERSION 2.0
WRAP.         NO: One line per depth step
~Well Information Block
#----------------------
#MNEM.UNIT  VALUE: DESCRIPTION
#----.---- -------: -------------
STRT.м                          2167.4: Начальная глубина
STOP.м                            3615: Конечная глубина
STEP.м                             0.2: Шаг квантования
NULL.                         -9999.99: Код отсутствия
COMP.                  ООО LUKOIL-Komi: Название организации
WELL.                              134: Наименование скважины
FLD .                        Tedinskoe: Наименование площади
LOC .                                 : Расположение скважины
CTRY.                                 : Название страны
SRVC.                             PNGG: Наим.орг-ции, проводившей каротаж
DATE.                        10.08.08 : Дата регистрации каротажных данных
UWI .                                 : Уникальный идентификатор скважины
~Parameter Information
#---------------------
#MNEM.UNIT  VALUE: DESCRIPTION
#----.---- -------: ---------------
BS  .м      0.22: Диаметр долота
~Curve Information Block
#-----------------------
#MNEM   .UNIT          : CURVE DESCRIPTION
#-------.----          : -----------------
DEPT    .m             : Колонка глубины
GR      .ur/hr         : Гамма каротаж
IK      .msm/m         : Индукционный каротаж аппаратурой АИК-5 (активная составляющая)
GZ4     .Omm           : Градиент-зонд  длиной 4.5м
PZ      .Omm           : Потенциал-зонд A0.5M6.5N
DS      .mm            : Каверномер
BS      .mm            : Номинальный диаметр 215.9мм
PS      .mV            : Потенциал самополяризации
RRA1    .mm            : Радиус1
RRB_1   .Omm           : Резистивиметр
RRA2    .mm            : Радиус2
RRA3    .mm            : Радиус3
RRA4    .mm            : Радиус4
C1      .mm            : Профиль1
C2      .mm            : Профиль2
PEF     .m3            : Суммарный объем скважины
PEF     .m3            : Объем затрубья
АбсОтмкр.m             : Абсолютные отметки ПНГГ
TEMP    .grad          : Температура
~Other Information
#-----------------
tool=СРК
mode=ННКт
id=59
tool=АИК-5
mode=Основной
id=42
tool=ЭК-1
mode=БК
id=5
tool=ЭК-1
mode=БКЗ
id=5
tool=ИНС-60
mode=Основной
id=260


~Ascii Log Data
# ...
  2292.200      6.187     75.573     10.426      6.633    238.392    215.900     48.477    122.581      0.270    115.811    122.581    115.811    244.564    231.622     51.029     18.181  -2100.163     49.799 
  2292.400      5.588     74.968     10.549      6.761    233.335    215.900     47.273    120.913      0.270    112.422    120.913    112.422    243.426    224.844     51.020     18.177  -2100.333     49.806 
  2292.600      5.420     76.008     10.784      6.761    232.331    215.900     46.514    120.406      0.270    111.924    120.406    111.924    242.460    223.848     51.011     18.174  -2100.503     49.809 
  2292.800      5.785     77.517     10.968      6.783    232.951    215.900     46.530    121.026      0.270    111.924    121.026    111.924    241.565    223.848     51.003     18.170  -2100.673     49.810 
  2293.000      5.834     79.486     10.968      6.761    233.112    215.900     47.251    121.212      0.266    111.901    121.212    111.901    240.709    223.801     50.994     18.167  -2100.844     49.806 
  2293.200      5.954     80.910     11.049      6.719    232.276    215.900     48.252    120.352      0.270    111.924    120.352    111.924    239.824    223.848     50.986     18.163  -2101.014     49.806 
  2293.400      6.671     82.145     11.166      6.644    231.170    215.900     49.155    119.245      0.270    111.924    119.245    111.924    238.835    223.848     50.977     18.159  -2101.184     49.809 
  2293.600      6.205     82.938     11.266      6.556    230.679    215.900     49.779    118.704      0.270    111.975    118.704    111.975    237.711    223.951     50.969     18.156  -2101.354     49.799 
  2293.800      6.507     83.989     11.290      6.419    230.661    215.900     50.129    118.704      0.270    111.957    118.704    111.957    236.493    223.914     50.960     18.153  -2101.525     49.804 
  2294.000      6.519     85.780     11.365      6.265    228.947    215.900     50.187    117.388      0.270    111.559    117.388    111.559    235.265    223.118     50.952     18.149  -2101.695     49.804 
  2294.200      6.689     86.643     11.332      6.169    228.603    215.900     49.948    117.044      0.270    111.559    117.044    111.559    234.113    223.118     50.944     18.146  -2101.865     49.802 
  2294.400      6.455     86.385     11.077      6.104    227.872    215.900     49.483    116.459      0.265    111.413    116.459    111.413    233.087    222.826     50.936     18.143  -2102.036     49.801 
  2294.600      6.633     85.456     10.925      6.044    228.229    215.900     49.030    116.263      0.260    111.966    116.263    111.966    232.341    223.931     50.928     18.140  -2102.206     49.810 
  2294.800      6.512     85.011     10.868      6.044    225.365    215.900     48.875    114.007      0.261    111.358    114.007    111.358    232.008    222.715     50.919     18.136  -2102.376     49.808 
  2295.000      6.242     86.158     10.769      6.044    223.245    215.900     49.229    112.961      0.266    110.283    112.961    110.283    232.005    220.566     50.911     18.133  -2102.546     49.815 
  2295.200      6.154     87.106     10.769      5.992    228.891    215.900     50.169    118.029      0.267    110.861    118.029    110.861    232.224    221.723     50.904     18.131  -2102.717     49.809 
  2295.400      6.454     88.509     10.769      5.941    228.647    215.900     51.655    117.743      0.260    110.904    117.743    110.904    232.628    221.807     50.895     18.127  -2102.887     49.806 
  2295.600      6.709     89.068     10.769      5.871    227.124    215.900     53.598    116.362      0.266    110.763    116.362    110.763    233.077    221.526     50.887     18.124  -2103.057     49.804 
  2295.800      7.023     88.779     10.634      5.834    227.241    215.900     55.780    116.555      0.260    110.686    116.555    110.686    233.371    221.372     50.879     18.121  -2103.227     49.799 
  2296.000      7.237     88.890     10.273      5.839    226.842    215.900     57.871    116.130      0.237    110.711    116.130    110.711    233.448    221.422     50.871     18.118  -2103.398     49.800 
  2296.200      6.889     87.789      9.876      5.890    232.589    215.900     59.455    118.240      0.250    114.349    118.240    114.349    233.336    228.698     50.863     18.115  -2103.568     49.808 
  2296.400      7.184     85.278      9.777      5.907    230.680    215.900     60.284    116.271      0.253    114.410    116.271    114.410    232.955    228.819     50.854     18.111  -2103.738     49.806 
  2296.600      7.171     81.485      9.578      6.003    226.532    215.900     60.392    116.706      0.260    109.827    116.706    109.827    232.220    219.653     50.846     18.108  -2103.908     49.807 
  2296.800      7.339     78.140      9.506      6.198    227.726    215.900     60.046    117.657      0.260    110.069    117.657    110.069    231.206    220.137     50.838     18.105  -2104.079     49.819 
  2297.000      6.452     76.517      9.479      6.472    225.036    215.900     59.464    114.281      0.269    110.756    114.281    110.756    230.159    221.512     50.830     18.102  -2104.249     49.820 
  2297.200      6.318     75.439      9.520      6.654    224.615    215.900     58.661    113.859      0.260    110.756    113.859    110.756    229.143    221.512     50.822     18.099  -2104.419     49.829 
  2297.400      6.498     75.890      9.705      6.761    224.615    215.900     57.519    113.859      0.270    110.756    113.859    110.756    228.336    221.512     50.814     18.096  -2104.589     49.836 
  2297.600      6.887     77.323      9.913      6.761    222.943    215.900     56.003    112.187      0.270    110.756    112.187    110.756    227.996    221.512     50.806     18.093  -2104.760     49.841 
  2297.800      6.516     78.551      9.842      6.761    222.796    215.900     54.243    112.041      0.260    110.756    112.041    110.756    228.199    221.512     50.798     18.090  -2104.930     49.841 
  2298.000      6.749     78.996      9.733      6.761    222.913    215.900     52.512    112.157      0.260    110.756    112.157    110.756    228.587    221.512     50.790     18.087  -2105.100     49.841 
  2298.200      6.818     78.243      9.578      6.761    231.619    215.900     51.056    120.152      0.270    111.467    120.152    111.467    229.105    222.934     50.783     18.084  -2105.270     49.846 
  2298.400      7.151     77.118      9.578      6.803    225.711    215.900     50.053    114.618      0.260    111.094    114.618    111.094    229.648    222.187     50.774     18.081  -2105.441     49.859 
  2298.600      6.769     76.668      9.528      6.863    225.326    215.900     49.533    113.859      0.266    111.467    113.859    111.467    229.987    222.933     50.766     18.078  -2105.611     49.866 
  2298.800      6.206     76.966      9.545      6.863    226.178    215.900     49.442    115.787      0.270    110.390    115.787    110.390    230.010    220.781     50.758     18.075  -2105.781     49.874 
  2299.000      5.875     77.694      9.628      6.914    224.771    215.900     49.662    114.653      0.260    110.119    114.653    110.119    229.992    220.237     50.750     18.072  -2105.951     49.892 
  2299.200      6.102     77.376      9.677      6.914    224.519    215.900     50.059    114.639      0.260    109.879    114.639    109.879    229.933    219.759     50.742     18.069  -2106.122     49.893 
  2299.400      6.342     76.952      9.677      6.863    225.008    215.900     50.494    115.128      0.260    109.879    115.128    109.879    229.825    219.759     50.734     18.066  -2106.292     49.900 
  2299.600      6.513     76.729      9.745      6.863    225.036    215.900     50.839    115.157      0.260    109.879    115.157    109.879    229.764    219.759     50.726     18.063  -2106.462     49.912 
  2299.800      6.614     77.509      9.777      6.863    225.230    215.900     51.024    114.639      0.260    110.591    114.639    110.591    229.788    221.182     50.718     18.060  -2106.633     49.918 
