~Version Information
#-------------------
VERS.        2.0: CWLS log ASCII Standart - VERSION 2.0
WRAP.         NO: One line per depth step
~Well Information Block
#----------------------
#MNEM.UNIT  VALUE: DESCRIPTION
#----.---- -------: -------------
STRT.м                            3615: Начальная глубина
STOP.м                            3296: Конечная глубина
STEP.м                            -0.2: Шаг квантования
NULL.                        -9999.999: Код отсутствия
COMP.                  ООО LUKOIL-Komi: Название организации
WELL.                              134: Наименование скважины
FLD .                        Tedinskoe: Наименование площади
LOC .                                 : Расположение скважины
CTRY.                                 : Название страны
SRVC.                             PNGG: Наим.орг-ции, проводившей каротаж
DATE.                         12-08-08: Дата регистрации каротажных данных
UWI .                                 : Уникальный идентификатор скважины
~Parameter Information
#---------------------
#MNEM.UNIT  VALUE: DESCRIPTION
#----.---- -------: ---------------
~Curve Information Block
#-----------------------
#MNEM   .UNIT         : CURVE DESCRIPTION
#-------.----         : -----------------
DEPT    .м            : Колонка глубины
GK_spek .imp          : Гамма каротаж по СГК
K       .             : Содержание калия
U       .ppm          : Содержание урана
TH      .ppm          : Содержание тория
THU     .otn.ed       : Отношение TH/U
UK      .ppm          : Отношение U/K
THK     .ppm          : Отношение TH/K
АбсОтмкр.м            : Абс.отметки ПНГГ
qсгк    .             : Двойной разностной параметр по СГК
~Other Information
#-----------------
~Ascii Log Data
# ...
  3396.000   1544.692      1.492      0.517      2.139      4.999      0.435      1.547  -3045.885      0.142 
  3395.800   1659.656      1.438      0.317      2.262      6.011      0.325      1.700  -3045.710      0.158 
  3395.600   1611.580      1.423      0.000      2.029      6.765      0.100      1.539  -3045.535      0.151 
  3395.400   1723.408      1.445      0.477      1.666      4.368      0.377      1.271  -3045.360      0.168 
  3395.200   1860.319      1.564      0.636      1.649      3.915      0.469      1.128  -3045.185      0.187 
  3395.000   1907.349      1.554      0.477      2.243      6.290      0.377      1.591  -3045.010      0.194 
  3394.800   1782.979      1.544      0.000      2.949      9.831      0.100      2.067  -3044.835      0.176 
  3394.600   1932.432      1.608      0.173      2.876      8.734      0.178      1.946  -3044.659      0.198 
  3394.400   1883.311      1.673      0.529      2.288      5.213      0.372      1.452  -3044.484      0.191 
  3394.200   1689.963      1.543      0.637      1.810      3.479      0.428      1.273  -3044.309      0.163 
  3394.000   1296.998      1.414      0.516      1.607      3.742      0.374      1.230  -3044.134      0.106 
  3393.800    941.655      1.184      0.557      1.312      3.144      0.640      1.261  -3043.959      0.055 
  3393.600   1027.355      1.068      0.964      0.985      1.333      1.110      1.093  -3043.784      0.067 
  3393.400   1149.635      1.118      1.101      0.836      0.799      1.169      0.915  -3043.609      0.085 
  3393.200   1105.740      1.347      0.966      0.948      1.075      0.819      0.757  -3043.434      0.078 
  3393.000   1222.794      1.310      0.939      1.022      1.178      0.845      0.843  -3043.258      0.095 
  3392.800   1423.457      1.204      1.160      1.169      1.096      1.112      1.037  -3043.083      0.124 
  3392.600   1501.842      1.213      0.928      1.565      3.143      0.939      1.344  -3042.908      0.136 
  3392.400   1556.188      1.259      0.862      1.893      4.003      0.854      1.610  -3042.733      0.143 
  3392.200   1418.232      1.224      0.603      2.227      5.860      0.671      1.955  -3042.558      0.124 
  3392.000   1393.149      1.323      0.520      2.374      6.739      0.541      1.960  -3042.383      0.120 
  3391.800   1774.619      1.587      0.467      2.225      6.582      0.307      1.611  -3042.208      0.175 
  3391.600   1920.936      1.734      0.911      1.532      3.184      0.551      0.948  -3042.032      0.196 
  3391.400   1562.459      1.614      0.831      1.422      2.827      0.537      1.005  -3041.857      0.144 
  3391.200   1329.397      1.381      0.544      1.420      3.518      0.447      1.129  -3041.682      0.111 
  3391.000   1332.532      1.424      0.445      1.495      3.555      0.383      1.120  -3041.507      0.111 
  3390.800   1835.236      1.511      0.854      1.940      2.293      0.651      1.395  -3041.332      0.184 
  3390.600   2248.059      1.525      1.227      2.193      2.088      0.924      1.600  -3041.157      0.243 
  3390.400   2088.156      1.431      1.397      1.750      1.281      1.063      1.341  -3040.982      0.220 
  3390.200   1733.859      1.447      1.060      1.201      1.546      0.789      0.900  -3040.807      0.169 
  3390.000   1470.488      1.386      0.758      1.242      1.949      0.588      0.975  -3040.631      0.131 
  3389.800   1409.871      1.341      0.478      1.425      3.279      0.437      1.137  -3040.456      0.122 
  3389.600   1417.187      1.430      0.253      1.494      4.273      0.292      1.121  -3040.280      0.123 
  3389.400   1474.669      1.459      0.332      1.348      3.959      0.350      0.979  -3040.104      0.132 
  3389.200   1329.397      1.362      0.692      1.145      2.220      0.624      0.907  -3039.928      0.111 
  3389.000   1266.689      1.185      0.867      1.213      1.517      0.794      1.152  -3039.752      0.102 
  3388.800   1128.733      1.041      1.031      1.331      1.562      1.171      1.426  -3039.576      0.082 
  3388.600   1059.755      1.090      1.003      1.404      2.239      1.184      1.432  -3039.401      0.072 
  3388.400   1190.395      1.200      0.670      1.533      3.643      0.805      1.403  -3039.225      0.091 
  3388.200   1021.085      1.134      0.343      1.416      3.858      0.482      1.346  -3039.049      0.066 
  3388.000    864.316      0.940      0.510      0.905      2.223      0.748      1.045  -3038.873      0.044 
  3387.800    898.805      0.924      0.731      0.695      0.938      0.914      0.854  -3038.697      0.049 
  3387.600   1211.298      1.025      1.053      1.075      1.031      1.137      1.144  -3038.521      0.094 
  3387.400   1336.713      0.944      1.309      1.337      1.080      1.612      1.605  -3038.345      0.112 
  3387.200   1075.431      0.894      1.258      1.044      0.771      1.644      1.369  -3038.170      0.074 
  3387.000    936.430      1.003      0.848      0.563      0.631      1.092      0.765  -3037.994      0.054 
  3386.800    900.896      1.216      0.606      0.476      0.865      0.566      0.423  -3037.818      0.049 
  3386.600   1171.583      1.330      0.470      0.905      2.184      0.385      0.722  -3037.642      0.088 
  3386.400   1626.212      1.288      0.619      1.612      2.945      0.554      1.406  -3037.466      0.154 
  3386.200   1678.467      1.208      0.847      1.905      2.684      0.801      1.754  -3037.290      0.161 
  3386.000   1335.667      1.186      1.072      1.528      1.441      0.988      1.452  -3037.114      0.112 
  3385.800   1198.756      1.160      0.967      0.842      0.858      0.904      0.790  -3036.939      0.092 
  3385.600   1077.522      1.086      0.691      0.586      1.131      0.675      0.592  -3036.763      0.074 
  3385.400    884.174      0.975      0.568      0.403      1.163      0.660      0.480  -3036.587      0.046 
  3385.200    793.248      0.956      0.628      0.329      0.937      0.745      0.414  -3036.411      0.033 
  3385.000    788.022      1.120      0.540      0.649      1.926      0.675      0.552  -3036.235      0.033 
  3384.800   1003.317      1.290      0.542      1.000      2.592      0.564      0.777  -3036.059      0.064 
  3384.600   1239.516      1.337      0.550      1.015      2.639      0.499      0.795  -3035.884      0.098 
  3384.400   1114.101      1.246      0.530      0.732      1.867      0.455      0.640  -3035.708      0.080 
  3384.200    994.956      1.199      0.177      0.952      3.147      0.187      0.889  -3035.532      0.062 
  3384.000   1075.432      1.206      0.063      1.135      3.782      0.123      1.052  -3035.356      0.074 
  3383.800   1332.532      1.257      0.337      1.098      3.123      0.329      0.984  -3035.180      0.111 
  3383.600   1391.059      1.275      0.838      0.732      1.443      0.758      0.616  -3035.004      0.120 
  3383.400   1210.252      1.133      1.131      0.476      0.428      1.120      0.452  -3034.828      0.094 
  3383.200   1212.343      1.132      0.756      0.695      1.708      0.880      0.614  -3034.653      0.094 
  3383.000   1164.267      1.333      0.727      0.877      2.192      0.694      0.687  -3034.477      0.087 
  3382.800   1895.853      1.587      1.127      1.191      1.916      0.764      0.801  -3034.301      0.193 
  3382.600   2073.524      1.618      1.350      1.411      1.340      0.880      0.928  -3034.125      0.218 
  3382.400   1651.294      1.674      0.989      1.352      1.565      0.628      0.890  -3033.949      0.157 
  3382.200   1359.705      1.528      0.801      0.915      1.247      0.623      0.681  -3033.773      0.115 
  3382.000   1279.231      1.463      0.808      0.622      0.840      0.666      0.502  -3033.598      0.104 
  3381.800   1150.680      1.211      0.954      0.694      0.882      1.029      0.663  -3033.422      0.085 
  3381.600   1077.522      1.111      0.859      0.791      1.210      1.018      0.834  -3033.246      0.074 
