~Version Information
#-------------------
VERS.        2.0: CWLS log ASCII Standart - VERSION 2.0
WRAP.         NO: One line per depth step
~Well Information Block
#----------------------
#MNEM.UNIT  VALUE: DESCRIPTION
#----.---- -------: -------------
STRT.м                            3615: Начальная глубина
STOP.м                            3296: Конечная глубина
STEP.м                            -0.2: Шаг квантования
NULL.                        -9999.999: Код отсутствия
COMP.                  ООО LUKOIL-Komi: Название организации
WELL.                              134: Наименование скважины
FLD .                        Tedinskoe: Наименование площади
LOC .                                 : Расположение скважины
CTRY.                                 : Название страны
SRVC.                             PNGG: Наим.орг-ции, проводившей каротаж
DATE.                         12-08-08: Дата регистрации каротажных данных
UWI .                                 : Уникальный идентификатор скважины
~Parameter Information
#---------------------
#MNEM.UNIT  VALUE: DESCRIPTION
#----.---- -------: ---------------
~Curve Information Block
#-----------------------
#MNEM   .UNIT         : CURVE DESCRIPTION
#-------.----         : -----------------
DEPT    .м            : Колонка глубины
GK_spek .imp          : Гамма каротаж по СГК
K       .             : Содержание калия
U       .ppm          : Содержание урана
TH      .ppm          : Содержание тория
THU     .otn.ed       : Отношение TH/U
UK      .ppm          : Отношение U/K
THK     .ppm          : Отношение TH/K
АбсОтмкр.м            : Абс.отметки ПНГГ
qсгк    .             : Двойной разностной параметр по СГК
~Other Information
#-----------------
~Ascii Log Data
# ...
  3352.200   1745.355      1.553      0.398      1.849      4.701      0.299      1.288  -3007.244      0.171 
  3352.000   1747.446      1.520      0.133      2.404      7.543      0.159      1.708  -3007.066      0.171 
  3351.800   1759.986      1.425      0.047      2.404      8.014      0.110      1.787  -3006.888      0.173 
  3351.600   1542.601      1.415      0.103      1.867      6.223      0.114      1.411  -3006.711      0.142 
  3351.400   1416.142      1.528      0.142      1.336      4.454      0.111      0.972  -3006.533      0.123 
  3351.200   1653.385      1.750      0.439      1.276      3.216      0.259      0.785  -3006.355      0.158 
  3351.000   2144.592      2.077      0.803      1.312      1.962      0.405      0.671  -3006.178      0.228 
  3350.800   2669.244      2.202      1.213      1.885      1.513      0.598      0.933  -3006.000      0.304 
  3350.600   2616.988      2.265      0.924      2.489      4.116      0.480      1.192  -3005.822      0.297 
  3350.400   2644.161      2.092      0.683      2.800      5.504      0.407      1.411  -3005.645      0.301 
  3350.200   2602.355      2.061      0.877      2.410      4.578      0.495      1.230  -3005.467      0.295 
  3350.000   2719.410      2.011      1.000      2.648      5.362      0.556      1.380  -3005.289      0.311 
  3349.800   2366.159      1.935      0.640      2.520      6.902      0.378      1.333  -3005.111      0.260 
  3349.600   2063.072      1.759      0.356      2.038      6.084      0.266      1.156  -3004.933      0.217 
  3349.400   1962.740      1.716      0.623      1.257      2.474      0.389      0.777  -3004.755      0.202 
  3349.200   2016.042      1.880      0.824      1.642      2.034      0.472      0.904  -3004.576      0.210 
  3349.000   2329.580      1.980      0.899      2.092      2.338      0.479      1.110  -3004.398      0.255 
  3348.800   2254.331      1.895      0.723      2.832      5.610      0.418      1.613  -3004.220      0.244 
  3348.600   2093.381      1.857      0.413      2.905      8.090      0.266      1.695  -3004.042      0.221 
  3348.400   2075.614      1.901      0.404      2.494      7.306      0.245      1.430  -3003.864      0.218 
  3348.200   2014.997      1.849      0.472      2.163      5.865      0.282      1.301  -3003.685      0.210 
  3348.000   1836.281      1.630      0.836      2.134      4.882      0.616      1.441  -3003.507      0.184 
  3347.800   2045.305      1.565      1.262      1.944      3.695      0.905      1.346  -3003.329      0.214 
  3347.600   2088.156      1.611      1.496      1.323      0.967      1.001      0.889  -3003.151      0.220 
  3347.400   1875.995      1.670      0.896      1.578      3.194      0.560      1.003  -3002.972      0.190 
  3347.200   1779.845      1.628      0.596      2.079      4.418      0.397      1.350  -3002.794      0.176 
  3347.000   1982.598      1.728      0.442      2.626      6.316      0.318      1.615  -3002.616      0.205 
  3346.800   2077.704      1.804      0.653      2.452      5.037      0.439      1.445  -3002.438      0.219 
  3346.600   1973.192      1.806      0.665      1.973      4.097      0.425      1.142  -3002.260      0.204 
  3346.400   2218.796      1.705      0.788      1.583      2.162      0.484      0.986  -3002.081      0.239 
  3346.200   1706.686      1.538      0.733      1.502      2.192      0.533      1.053  -3001.903      0.165 
  3346.000   1370.156      1.394      0.810      1.364      1.800      0.646      1.050  -3001.725      0.117 
  3345.800   1265.644      1.193      1.027      0.934      1.031      1.001      0.818  -3001.547      0.102 
  3345.600   1191.440      1.108      0.788      0.869      1.899      0.877      0.833  -3001.369      0.091 
  3345.400   1119.326      1.145      0.625      0.994      2.414      0.695      0.931  -3001.190      0.080 
  3345.200   1157.996      1.147      0.694      0.942      2.097      0.786      0.865  -3001.012      0.086 
  3345.000   1115.146      1.136      1.004      0.555      0.708      1.089      0.504  -3000.834      0.080 
  3344.800   1304.313      1.130      1.104      0.343      0.337      1.142      0.336  -3000.656      0.107 
  3344.600   1448.540      1.327      0.724      1.002      2.744      0.671      0.740  -3000.478      0.128 
  3344.400   1463.173      1.423      0.536      1.599      4.274      0.492      1.149  -3000.299      0.130 
  3344.200   1462.127      1.389      0.637      1.626      3.806      0.593      1.213  -3000.121      0.130 
  3344.000   1502.887      1.264      0.994      1.284      1.620      0.896      1.083  -2999.943      0.136 
  3343.800   1661.746      1.250      1.366      0.990      0.930      1.179      0.878  -2999.765      0.159 
  3343.600   1941.838      1.525      1.329      1.191      1.221      0.997      0.837  -2999.586      0.199 
  3343.400   2122.645      1.725      0.992      2.272      5.640      0.677      1.367  -2999.408      0.225 
  3343.200   2296.136      1.919      0.646      3.062      7.547      0.336      1.783  -2999.230      0.250 
  3343.000   2277.323      1.920      0.975      3.226      6.121      0.525      1.853  -2999.052      0.248 
  3342.800   2490.528      1.925      1.584      2.472      1.633      0.887      1.366  -2998.874      0.278 
  3342.600   2649.386      2.033      1.350      2.655      4.071      0.782      1.377  -2998.695      0.301 
  3342.400   2669.244      2.096      1.389      2.181      4.593      0.805      1.063  -2998.517      0.304 
  3342.200   2768.531      2.150      1.023      2.604      7.177      0.617      1.233  -2998.339      0.318 
  3342.000   2931.570      2.178      0.986      3.409      7.009      0.566      1.577  -2998.161      0.342 
  3341.800   3129.099      2.460      0.657      4.341      7.303      0.295      1.846  -2997.983      0.371 
  3341.600   3020.405      2.356      1.108      4.139      3.993      0.526      1.865  -2997.804      0.355 
  3341.400   3168.813      2.278      1.083      3.975      4.255      0.543      1.860  -2997.626      0.376 
  3341.200   3198.076      1.995      1.217      3.485      3.908      0.740      1.811  -2997.448      0.381 
  3341.000   2074.570      1.768      0.895      2.738      4.432      0.612      1.582  -2997.270      0.218 
  3340.800   1299.088      1.289      0.744      1.784      3.405      0.667      1.519  -2997.091      0.106 
  3340.600   1215.478      1.153      0.378      1.581      4.120      0.444      1.517  -2996.913      0.094 
  3340.400   1186.215      1.119      0.366      1.359      3.668      0.388      1.354  -2996.735      0.090 
  3340.200   1093.199      1.179      0.129      1.211      4.037      0.150      1.122  -2996.557      0.077 
  3340.000   1050.348      1.182      0.091      0.988      3.294      0.124      0.915  -2996.379      0.070 
  3339.800   1141.274      1.241      0.238      0.842      2.488      0.227      0.748  -2996.200      0.084 
  3339.600   1236.380      1.260      0.382      0.952      2.467      0.324      0.841  -2996.022      0.097 
  3339.400   1217.568      1.257      0.445      1.244      2.951      0.382      1.100  -2995.844      0.095 
  3339.200   1108.875      1.192      0.400      1.244      3.084      0.366      1.131  -2995.666      0.079 
  3339.000   1053.484      1.163      0.672      0.842      1.872      0.644      0.773  -2995.487      0.071 
  3338.800   1180.988      1.042      1.017      0.695      0.989      1.132      0.794  -2995.309      0.089 
  3338.600   1337.758      0.993      1.227      0.659      0.528      1.404      0.805  -2995.131      0.112 
  3338.400   1302.223      1.070      1.060      1.025      1.056      1.163      1.046  -2994.953      0.107 
  3338.200   1799.701      1.456      1.259      1.233      1.179      0.920      0.923  -2994.775      0.179 
  3338.000   2638.935      1.827      1.714      1.852      1.278      0.958      1.125  -2994.596      0.300 
  3337.800   2949.337      2.217      1.480      2.641      4.697      0.789      1.218  -2994.418      0.345 
