~Version Information
#-------------------
VERS.        2.0: CWLS log ASCII Standart - VERSION 2.0
WRAP.         NO: One line per depth step
~Well Information Block
#----------------------
#MNEM.UNIT  VALUE: DESCRIPTION
#----.---- -------: -------------
STRT.м                            3615: Начальная глубина
STOP.м                            3296: Конечная глубина
STEP.м                            -0.2: Шаг квантования
NULL.                        -9999.999: Код отсутствия
COMP.                  ООО LUKOIL-Komi: Название организации
WELL.                              134: Наименование скважины
FLD .                        Tedinskoe: Наименование площади
LOC .                                 : Расположение скважины
CTRY.                                 : Название страны
SRVC.                             PNGG: Наим.орг-ции, проводившей каротаж
DATE.                         12-08-08: Дата регистрации каротажных данных
UWI .                                 : Уникальный идентификатор скважины
~Parameter Information
#---------------------
#MNEM.UNIT  VALUE: DESCRIPTION
#----.---- -------: ---------------
~Curve Information Block
#-----------------------
#MNEM   .UNIT         : CURVE DESCRIPTION
#-------.----         : -----------------
DEPT    .м            : Колонка глубины
GK_spek .imp          : Гамма каротаж по СГК
K       .             : Содержание калия
U       .ppm          : Содержание урана
TH      .ppm          : Содержание тория
THU     .otn.ed       : Отношение TH/U
UK      .ppm          : Отношение U/K
THK     .ppm          : Отношение TH/K
АбсОтмкр.м            : Абс.отметки ПНГГ
qсгк    .             : Двойной разностной параметр по СГК
~Other Information
#-----------------
~Ascii Log Data
# ...
  3308.400   3569.094      2.652      1.770      4.826      8.776      0.942      1.797  -2968.158      0.434 
  3308.200   3991.324      2.870      1.318      5.241     11.223      0.626      1.809  -2967.979      0.495 
  3308.000   3096.700      2.637      1.634      3.752      8.280      0.798      1.356  -2967.800      0.366 
  3307.800   2942.021      2.456      1.747      2.871      4.613      0.796      1.180  -2967.621      0.344 
  3307.600   3622.394      2.675      1.312      3.008      5.920      0.539      1.129  -2967.442      0.442 
  3307.400   3115.511      2.422      1.154      2.899      4.964      0.562      1.259  -2967.263      0.369 
  3307.200   2491.573      2.160      1.802      1.956      1.175      0.896      1.027  -2967.084      0.279 
  3307.000   3395.603      2.420      1.716      3.130      2.771      0.818      1.301  -2966.906      0.409 
  3306.800   4332.030      2.979      1.819      3.859      3.338      0.677      1.291  -2966.727      0.544 
  3306.600   4151.223      2.958      1.266      4.573      7.653      0.419      1.648  -2966.548      0.518 
  3306.400   3539.831      2.822      0.911      4.635     11.501      0.310      1.760  -2966.369      0.430 
  3306.200   3684.058      2.680      0.667      5.211     11.865      0.273      2.047  -2966.190      0.451 
  3306.000   4015.362      2.966      1.609      5.166      6.200      0.555      1.850  -2966.011      0.498 
  3305.800   4790.839      3.648      1.701      5.712      8.958      0.572      1.681  -2965.832      0.610 
  3305.600   5944.655      4.657      1.980      6.273     10.736      0.498      1.388  -2965.653      0.777 
  3305.400   6606.218      5.186      1.595      7.137     11.696      0.328      1.406  -2965.475      0.873 
  3305.200   6906.167      5.119      2.202      7.125      6.117      0.442      1.420  -2965.296      0.916 
  3305.000   7138.187      5.067      1.945      7.710      6.088      0.399      1.547  -2965.117      0.949 
  3304.800   6942.747      4.963      2.336      7.425      3.505      0.486      1.520  -2964.938      0.921 
  3304.600   5910.163      4.425      2.201      6.662      3.216      0.540      1.532  -2964.759      0.772 
  3304.400   4800.245      3.589      2.473      4.624      1.891      0.740      1.300  -2964.580      0.612 
  3304.200   4210.798      3.184      1.899      3.752      3.927      0.636      1.204  -2964.401      0.527 
  3304.000   4165.854      3.050      1.166      4.172      6.673      0.408      1.450  -2964.222      0.520 
  3303.800   3912.940      2.938      0.515      4.603      9.133      0.188      1.662  -2964.044      0.484 
  3303.600   3759.308      2.698      0.733      4.079      7.112      0.290      1.579  -2963.865      0.462 
  3303.400   3992.369      2.600      1.196      3.796      4.675      0.499      1.537  -2963.686      0.495 
  3303.200   4187.804      2.667      1.757      3.836      2.231      0.690      1.539  -2963.507      0.523 
  3303.000   4545.235      3.138      1.386      4.660      7.851      0.548      1.558  -2963.328      0.575 
  3302.800   4948.654      3.618      0.757      5.434     12.880      0.280      1.520  -2963.149      0.633 
  3302.600   4929.844      3.710      0.302      5.626     14.958      0.115      1.550  -2962.970      0.631 
  3302.400   4466.852      3.387      0.433      5.106     11.757      0.134      1.573  -2962.791      0.564 
  3302.200   4352.933      3.090      0.775      4.481      8.645      0.267      1.522  -2962.613      0.547 
  3302.000   3981.919      2.869      0.927      4.298      6.744      0.331      1.555  -2962.434      0.494 
  3301.800   3647.479      2.824      0.795      4.347      7.979      0.287      1.601  -2962.255      0.445 
  3301.600   3527.290      2.703      0.642      4.273      8.599      0.253      1.627  -2962.076      0.428 
  3301.400   3376.792      2.575      1.073      3.566      5.513      0.448      1.416  -2961.897      0.406 
  3301.200   2898.126      2.338      1.439      2.102      1.539      0.650      0.911  -2961.718      0.337 
  3301.000   2454.993      2.242      1.342      1.804      1.519      0.630      0.817  -2961.539      0.273 
  3300.800   2348.391      2.049      1.060      1.542      1.648      0.555      0.766  -2961.360      0.258 
  3300.600   2065.162      1.716      1.159      1.288      1.383      0.844      0.713  -2961.181      0.217 
  3300.400   2066.208      1.525      0.979      1.126      2.620      0.859      0.717  -2961.003      0.217 
  3300.200   2037.989      1.671      0.594      1.638      5.158      0.566      0.959  -2960.824      0.213 
  3300.000   1987.823      1.954      0.294      2.074      5.916      0.182      1.126  -2960.645      0.206 
  3299.800   1902.124      1.829      0.648      1.931      3.803      0.416      1.153  -2960.466      0.193 
  3299.600   1937.658      1.632      1.079      1.812      1.878      0.756      1.226  -2960.288      0.199 
  3299.400   1971.101      1.472      0.989      1.908      3.153      0.726      1.391  -2960.110      0.203 
  3299.200   1990.959      1.570      0.978      1.618      3.385      0.658      1.126  -2959.931      0.206 
  3299.000   2001.410      1.717      0.704      1.484      4.172      0.439      0.935  -2959.753      0.208 
  3298.800   2117.419      1.833      0.743      1.591      3.435      0.447      0.906  -2959.575      0.225 
  3298.600   2237.608      1.816      0.735      1.957      3.415      0.443      1.144  -2959.396      0.242 
  3298.400   2204.164      1.786      0.723      2.354      4.704      0.476      1.384  -2959.218      0.237 
  3298.200   1996.185      1.617      0.785      1.946      4.830      0.652      1.165  -2959.040      0.207 
  3298.000   1731.768      1.478      0.923      1.107      3.368      0.809      0.698  -2958.861      0.169 
  3297.800   1449.586      1.448      0.988      0.431      1.213      0.795      0.338  -2958.683      0.128 
  3297.600   1468.398      1.614      0.478      0.988      3.324      0.373      0.655  -2958.505      0.131 
  3297.400   1516.474      1.608      0.307      1.501      4.104      0.260      1.002  -2958.326      0.138 
  3297.200   1472.579      1.418      0.484      1.464      3.152      0.428      1.103  -2958.148      0.131 
  3297.000   1504.977      1.311      0.568      1.208      2.280      0.475      1.000  -2957.970      0.136 
  3296.800   1508.112      1.338      0.312      1.419      4.012      0.302      1.136  -2957.791      0.137 
  3296.600   1352.389      1.342      0.103      1.526      4.947      0.149      1.214  -2957.613      0.114 
  3296.400   1199.801      1.259      0.166      1.309      4.029      0.217      1.100  -2957.435      0.092 
  3296.200   1237.426      1.174      0.353      0.952      2.377      0.354      0.895  -2957.078      0.097 
  3296.000   1707.730      1.279      0.653      1.098      1.821      0.535      0.929  -2957.078      0.165 
