~Version Information
#-------------------
VERS.        2.0: CWLS log ASCII Standart - VERSION 2.0
WRAP.         NO: One line per depth step
~Well Information Block
#----------------------
#MNEM.UNIT  VALUE: DESCRIPTION
#----.---- -------: -------------
STRT.м                            3615: Начальная глубина
STOP.м                            3296: Конечная глубина
STEP.м                            -0.2: Шаг квантования
NULL.                        -9999.999: Код отсутствия
COMP.                  ООО LUKOIL-Komi: Название организации
WELL.                              134: Наименование скважины
FLD .                        Tedinskoe: Наименование площади
LOC .                                 : Расположение скважины
CTRY.                                 : Название страны
SRVC.                             PNGG: Наим.орг-ции, проводившей каротаж
DATE.                         12-08-08: Дата регистрации каротажных данных
UWI .                                 : Уникальный идентификатор скважины
~Parameter Information
#---------------------
#MNEM.UNIT  VALUE: DESCRIPTION
#----.---- -------: ---------------
~Curve Information Block
#-----------------------
#MNEM   .UNIT         : CURVE DESCRIPTION
#-------.----         : -----------------
DEPT    .м            : Колонка глубины
GK_spek .imp          : Гамма каротаж по СГК
K       .             : Содержание калия
U       .ppm          : Содержание урана
TH      .ppm          : Содержание тория
THU     .otn.ed       : Отношение TH/U
UK      .ppm          : Отношение U/K
THK     .ppm          : Отношение TH/K
АбсОтмкр.м            : Абс.отметки ПНГГ
qсгк    .             : Двойной разностной параметр по СГК
~Other Information
#-----------------
~Ascii Log Data
# ...
  3469.000    841.324      0.922      0.311      0.732      2.012      0.392      0.816  -3109.073      0.040 
  3468.800    911.347      0.906      0.351      0.586      1.558      0.391      0.683  -3108.902      0.050 
  3468.600    809.970      0.906      0.187      0.701      2.212      0.219      0.810  -3108.730      0.036 
  3468.400    897.760      0.810      0.220      0.806      2.371      0.325      0.996  -3108.559      0.048 
  3468.200    879.993      0.824      0.242      1.038      3.036      0.382      1.226  -3108.388      0.046 
  3468.000    801.609      0.829      0.182      1.168      3.577      0.312      1.377  -3108.217      0.035 
  3467.800    765.030      0.760      0.172      1.037      3.280      0.368      1.285  -3108.045      0.029 
  3467.600    708.593      0.703      0.323      0.586      1.704      0.544      0.820  -3107.874      0.021 
  3467.400    818.331      0.850      0.460      0.329      0.918      0.600      0.508  -3107.703      0.037 
  3467.200    802.654      0.873      0.548      0.293      0.742      0.704      0.477  -3107.531      0.035 
  3467.000    776.526      0.861      0.510      0.220      0.582      0.666      0.382  -3107.360      0.031 
  3466.800    725.315      0.880      0.471      0.000      0.100      0.603      0.100  -3107.189      0.024 
  3466.600    696.052      0.913      0.314      0.000      0.100      0.403      0.100  -3107.017      0.019 
  3466.400    751.443      0.935      0.293      0.110      0.299      0.366      0.211  -3106.846      0.027 
  3466.200    704.412      0.911      0.288      0.146      0.366      0.366      0.248  -3106.675      0.021 
  3466.000    700.232      0.832      0.278      0.202      0.579      0.373      0.322  -3106.504      0.020 
  3465.800    699.187      0.810      0.335      0.123      0.473      0.465      0.247  -3106.332      0.020 
  3465.600    686.645      0.810      0.558      0.093      0.379      0.771      0.210  -3106.161      0.018 
  3465.400    735.766      0.916      0.617      0.000      0.100      0.804      0.100  -3105.990      0.025 
  3465.200    685.600      0.964      0.526      0.312      0.667      0.650      0.461  -3105.818      0.018 
  3465.000    700.232      0.933      0.586      0.417      0.856      0.756      0.582  -3105.647      0.020 
  3464.800    680.375      0.841      0.686      0.312      0.667      0.940      0.461  -3105.476      0.017 
  3464.600    642.750      0.865      0.491      0.220      0.802      0.715      0.325  -3105.305      0.012 
  3464.400    699.187      0.909      0.258      0.512      1.695      0.378      0.642  -3105.133      0.020 
  3464.200    695.007      0.957      0.336      0.622      1.808      0.414      0.737  -3104.962      0.019 
  3464.000    732.630      0.944      0.584      0.366      0.929      0.690      0.462  -3104.791      0.025 
  3463.800    667.833      0.879      0.489      0.439      1.296      0.616      0.679  -3104.619      0.015 
  3463.600    685.600      0.824      0.412      0.549      1.658      0.566      0.862  -3104.448      0.018 
  3463.400    661.562      0.793      0.439      0.695      1.703      0.643      1.057  -3104.277      0.014 
  3463.200    679.330      0.768      0.639      0.403      0.709      0.966      0.638  -3104.105      0.017 
  3463.000    726.360      0.752      0.592      0.329      0.661      0.925      0.540  -3103.934      0.024 
  3462.800    655.292      0.864      0.541      0.146      0.373      0.750      0.258  -3103.763      0.013 
  3462.600    666.788      0.918      0.368      0.220      0.641      0.441      0.341  -3103.592      0.015 
  3462.400    672.014      0.945      0.258      0.256      0.884      0.290      0.355  -3103.420      0.016 
  3462.200    642.750      0.970      0.124      0.476      1.586      0.178      0.540  -3103.249      0.012 
  3462.000    746.218      0.959      0.244      0.403      1.372      0.384      0.451  -3103.078      0.027 
  3461.800    685.600      0.892      0.307      0.329      1.138      0.479      0.405  -3102.906      0.018 
  3461.600    669.924      0.833      0.621      0.146      0.548      0.864      0.246  -3102.735      0.016 
  3461.400    668.878      0.875      0.602      0.220      0.772      0.803      0.314  -3102.564      0.015 
  3461.200    685.600      0.835      0.713      0.146      0.548      1.022      0.240  -3102.392      0.018 
  3461.000    707.548      0.853      0.700      0.329      0.653      0.976      0.431  -3102.221      0.021 
  3460.800    699.187      0.870      0.913      0.391      0.463      1.208      0.494  -3102.050      0.020 
  3460.600    677.239      0.887      0.922      0.460      0.503      1.180      0.575  -3101.879      0.017 
  3460.400    730.541      0.828      0.893      0.244      0.291      1.228      0.360  -3101.707      0.024 
  3460.200    816.241      0.890      0.667      0.110      0.188      0.924      0.225  -3101.536      0.037 
  3460.000    872.677      0.974      0.648      0.000      0.100      0.796      0.100  -3101.365      0.045 
  3459.800    748.308      1.025      0.774      0.000      0.100      0.860      0.100  -3101.193      0.027 
  3459.600    742.037      0.885      1.005      0.000      0.100      1.363      0.100  -3101.021      0.026 
  3459.400    739.947      0.818      0.968      0.000      0.100      1.442      0.100  -3100.850      0.026 
  3459.200    720.089      0.836      0.852      0.000      0.100      1.252      0.100  -3100.678      0.023 
  3459.000    747.263      0.910      0.863      0.000      0.100      1.091      0.100  -3100.506      0.027 
  3458.800    740.992      0.894      0.650      0.329      1.168      0.865      0.496  -3100.334      0.026 
  3458.600    804.744      0.805      0.353      0.549      1.860      0.544      0.789  -3100.163      0.035 
  3458.400    734.721      0.847      0.048      0.574      1.912      0.121      0.783  -3099.991      0.025 
  3458.200    725.315      0.969      0.177      0.338      1.060      0.205      0.420  -3099.819      0.024 
  3458.000    700.232      1.109      0.338      0.228      0.702      0.333      0.256  -3099.648      0.020 
  3457.800    688.736      1.054      0.379      0.196      0.625      0.395      0.257  -3099.476      0.018 
  3457.600    714.864      0.969      0.280      0.240      0.830      0.316      0.326  -3099.304      0.022 
  3457.400    788.022      0.856      0.367      0.464      1.086      0.551      0.657  -3099.133      0.033 
  3457.200    839.233      0.785      0.634      0.403      0.759      1.014      0.639  -3098.961      0.040 
  3457.000    759.804      0.788      0.683      0.329      0.678      1.072      0.528  -3098.789      0.029 
  3456.800    709.638      0.831      0.514      0.146      0.548      0.765      0.232  -3098.618      0.021 
  3456.600    627.074      0.792      0.396      0.220      0.646      0.611      0.369  -3098.446      0.009 
  3456.400    620.803      0.743      0.495      0.256      0.545      0.774      0.446  -3098.274      0.008 
  3456.200    623.938      0.826      0.460      0.366      0.836      0.667      0.522  -3098.102      0.009 
  3456.000    562.276      0.976      0.392      0.476      1.357      0.469      0.534  -3097.931      0.000 
  3455.800    639.615      1.021      0.425      0.403      1.319      0.473      0.447  -3097.759      0.011 
  3455.600    612.442      0.882      0.818      0.220      0.784      1.359      0.290  -3097.587      0.007 
  3455.400    651.112      0.788      1.091      0.000      0.100      1.852      0.100  -3097.416      0.013 
  3455.200    723.225      0.825      1.005      0.000      0.100      1.616      0.100  -3097.244      0.023 
  3455.000    650.066      0.897      0.855      0.000      0.100      1.106      0.100  -3097.072      0.013 
  3454.800    690.826      0.894      0.755      0.110      0.330      1.000      0.199  -3096.901      0.019 
  3454.600    803.699      0.792      0.898      0.146      0.406      1.507      0.233  -3096.729      0.035 
