~Version Information
#-------------------
VERS.        2.0: CWLS log ASCII Standart - VERSION 2.0
WRAP.         NO: One line per depth step
~Well Information Block
#----------------------
#MNEM.UNIT  VALUE: DESCRIPTION
#----.---- -------: -------------
STRT.м                          2167.4: Начальная глубина
STOP.м                            3615: Конечная глубина
STEP.м                             0.2: Шаг квантования
NULL.                         -9999.99: Код отсутствия
COMP.                  ООО LUKOIL-Komi: Название организации
WELL.                              134: Наименование скважины
FLD .                        Tedinskoe: Наименование площади
LOC .                                 : Расположение скважины
CTRY.                                 : Название страны
SRVC.                             PNGG: Наим.орг-ции, проводившей каротаж
DATE.                        10.08.08 : Дата регистрации каротажных данных
UWI .                                 : Уникальный идентификатор скважины
~Parameter Information
#---------------------
#MNEM.UNIT  VALUE: DESCRIPTION
#----.---- -------: ---------------
BS  .м      0.22: Диаметр долота
~Curve Information Block
#-----------------------
#MNEM   .UNIT          : CURVE DESCRIPTION
#-------.----          : -----------------
DEPT    .m             : Колонка глубины
GR      .ur/hr         : Гамма каротаж
IK      .msm/m         : Индукционный каротаж аппаратурой АИК-5 (активная составляющая)
GZ4     .Omm           : Градиент-зонд  длиной 4.5м
PZ      .Omm           : Потенциал-зонд A0.5M6.5N
DS      .mm            : Каверномер
BS      .mm            : Номинальный диаметр 215.9мм
PS      .mV            : Потенциал самополяризации
RRA1    .mm            : Радиус1
RRB_1   .Omm           : Резистивиметр
RRA2    .mm            : Радиус2
RRA3    .mm            : Радиус3
RRA4    .mm            : Радиус4
C1      .mm            : Профиль1
C2      .mm            : Профиль2
PEF     .m3            : Суммарный объем скважины
PEF     .m3            : Объем затрубья
АбсОтмкр.m             : Абсолютные отметки ПНГГ
TEMP    .grad          : Температура
~Other Information
#-----------------
tool=СРК
mode=ННКт
id=59
tool=АИК-5
mode=Основной
id=42
tool=ЭК-1
mode=БК
id=5
tool=ЭК-1
mode=БКЗ
id=5
tool=ИНС-60
mode=Основной
id=260


~Ascii Log Data
# ...
  3236.000      2.205      8.783    158.301     36.133    220.232    215.900   -103.329    110.511      0.209    109.722    110.511    109.722    222.329    219.443     14.091      4.730  -2904.239     61.391 
  3236.200      2.049      9.429    166.051     35.278    220.278    215.900   -101.501    110.264      0.209    110.014    110.264    110.014    221.823    220.027     14.084      4.727  -2904.414     61.389 
  3236.400      1.938      9.810    178.878     34.468    220.459    215.900    -99.743    110.446      0.209    110.014    110.446    110.014    221.619    220.027     14.076      4.725  -2904.590     61.396 
  3236.600      2.062     10.197    186.914     33.430    220.665    215.900    -98.203    110.651      0.209    110.014    110.651    110.014    221.692    220.027     14.069      4.722  -2904.765     61.400 
  3236.800      2.068     11.068    194.164     32.233    221.053    215.900    -96.811    111.039      0.209    110.014    111.039    110.014    221.902    220.027     14.061      4.719  -2904.941     61.397 
  3237.000      2.255     12.465    201.697     31.201    221.171    215.900    -95.443    111.158      0.209    110.014    111.158    110.014    222.156    220.027     14.053      4.717  -2905.116     61.393 
  3237.200      2.169     13.836    208.486     29.933    221.593    215.900    -93.956    111.579      0.209    110.014    111.579    110.014    222.405    220.027     14.046      4.714  -2905.292     61.388 
  3237.400      2.501     15.149    209.089     28.612    221.206    215.900    -92.274    111.192      0.209    110.014    111.192    110.014    222.628    220.027     14.038      4.711  -2905.467     61.390 
  3237.600      2.634     16.999    204.185     27.451    221.354    215.900    -90.435    111.340      0.209    110.014    111.340    110.014    222.808    220.027     14.030      4.708  -2905.643     61.384 
  3237.800      2.673     19.191    189.320     26.376    221.791    215.900    -88.602    111.777      0.209    110.014    111.777    110.014    222.958    220.027     14.022      4.706  -2905.818     61.377 
  3238.000      2.410     20.980    175.595     25.393    221.349    215.900    -86.992    111.335      0.209    110.014    111.335    110.014    223.118    220.027     14.015      4.703  -2905.994     61.378 
  3238.200      2.325     21.478    166.444     24.789    221.400    215.900    -85.706    111.387      0.209    110.014    111.387    110.014    223.283    220.027     14.007      4.700  -2906.169     61.387 
  3238.400      2.575     20.871    161.934     24.328    222.049    215.900    -84.617    111.890      0.209    110.160    111.890    110.160    223.468    220.320     13.999      4.698  -2906.345     61.382 
  3238.600      2.732     19.885    160.765     23.918    222.044    215.900    -83.457    111.812      0.209    110.232    111.812    110.232    223.700    220.465     13.992      4.695  -2906.520     61.378 
  3238.800      2.179     19.632    161.973     23.401    222.235    215.900    -82.050    112.002      0.209    110.233    112.002    110.233    223.985    220.466     13.984      4.692  -2906.696     61.380 
  3239.000      1.784     20.172    162.511     22.656    222.266    215.900    -80.474    111.982      0.209    110.284    111.982    110.284    224.312    220.568     13.976      4.689  -2906.871     61.375 
  3239.200      1.899     21.726    163.027     21.818    220.094    215.900    -78.962    112.125      0.209    107.969    112.125    107.969    224.688    215.938     13.968      4.686  -2907.047     61.370 
  3239.400      1.890     23.574    162.321     20.896    220.437    215.900    -77.649    112.199      0.209    108.238    112.199    108.238    225.073    216.476     13.961      4.684  -2907.222     61.364 
  3239.600      2.084     25.952    156.932     20.088    221.879    215.900    -76.482    113.108      0.209    108.771    113.108    108.771    225.429    217.542     13.953      4.681  -2907.398     61.362 
  3239.800      2.020     28.085    146.136     19.134    222.325    215.900    -75.349    113.254      0.209    109.071    113.254    109.071    225.693    218.141     13.945      4.678  -2907.574     61.361 
  3240.000      2.644     30.036    136.278     18.341    222.364    215.900    -74.264    113.571      0.209    108.793    113.571    108.793    225.831    217.586     13.938      4.676  -2907.749     61.372 
  3240.200      2.567     31.023    125.625     17.772    222.475    215.900    -73.369    113.098      0.209    109.376    113.098    109.376    225.849    218.753     13.930      4.673  -2907.924     61.369 
  3240.400      2.776     31.728    115.862     17.425    222.309    215.900    -72.772    112.471      0.209    109.837    112.471    109.837    225.765    219.674     13.922      4.670  -2908.100     61.372 
  3240.600      2.812     31.264    106.324     17.198    222.616    215.900    -72.421    112.876      0.209    109.740    112.876    109.740    225.603    219.481     13.914      4.667  -2908.275     61.379 
  3240.800      2.483     30.413     99.391     17.050    222.634    215.900    -72.121    113.054      0.209    109.581    113.054    109.581    225.437    219.162     13.907      4.664  -2908.450     61.384 
  3241.000      2.445     29.006     96.625     16.987    221.733    215.900    -71.702    112.218      0.209    109.515    112.218    109.515    225.327    219.030     13.899      4.662  -2908.626     61.376 
  3241.200      2.281     28.273     95.974     16.835    221.740    215.900    -71.106    112.159      0.209    109.581    112.159    109.581    225.253    219.162     13.891      4.659  -2908.801     61.378 
  3241.400      1.862     28.457     94.231     16.662    222.634    215.900    -70.339    113.053      0.209    109.581    113.053    109.581    225.242    219.162     13.883      4.656  -2908.976     61.382 
  3241.600      1.886     29.998     90.766     16.361    221.809    215.900    -69.405    112.229      0.209    109.581    112.229    109.581    225.289    219.162     13.876      4.653  -2909.152     61.383 
  3241.800      1.980     31.890     87.394     16.022    222.606    215.900    -68.272    113.025      0.209    109.581    113.025    109.581    225.374    219.162     13.868      4.651  -2909.327     61.391 
  3242.000      2.179     34.702     84.099     15.615    221.994    215.900    -66.991    112.413      0.209    109.581    112.413    109.581    225.441    219.162     13.860      4.648  -2909.503     61.393 
  3242.200      2.295     37.339     80.446     15.204    222.634    215.900    -65.615    113.054      0.209    109.581    113.054    109.581    225.501    219.162     13.852      4.645  -2909.678     61.398 
  3242.400      2.759     41.190     78.461     14.796    222.386    215.900    -64.201    112.806      0.209    109.581    112.806    109.581    225.692    219.162     13.844      4.642  -2909.853     61.404 
  3242.600      2.560     44.636     77.271     14.308    222.381    215.900    -62.725    112.800      0.209    109.581    112.800    109.581    226.151    219.162     13.837      4.639  -2910.028     61.407 
  3242.800      2.709     48.253     77.740     13.726    222.302    215.900    -61.226    112.828      0.209    109.474    112.828    109.474    226.979    218.949     13.829      4.637  -2910.204     61.398 
  3243.000      2.844     49.624     79.022     13.098    222.541    215.900    -59.825    112.968      0.209    109.573    112.968    109.573    228.463    219.147     13.821      4.634  -2910.379     61.404 
  3243.200      2.759     52.384     78.759     12.302    221.707    215.900    -58.732    112.199      0.209    109.508    112.199    109.508    230.829    219.015     13.813      4.631  -2910.555     61.409 
  3243.400      2.529     60.966     74.291     11.619    221.422    215.900    -58.145    112.477      0.214    108.945    112.477    108.945    233.619    217.891     13.806      4.628  -2910.730     61.407 
  3243.600      2.504     74.305     69.724     10.880    232.228    215.900    -58.203    123.230      0.219    108.999    123.230    108.999    236.416    217.998     13.798      4.626  -2910.905     61.408 
