~Version Information
#-------------------
VERS.        2.0: CWLS log ASCII Standart - VERSION 2.0
WRAP.         NO: One line per depth step
~Well Information Block
#----------------------
#MNEM.UNIT  VALUE: DESCRIPTION
#----.---- -------: -------------
STRT.м                            3615: Начальная глубина
STOP.м                            3296: Конечная глубина
STEP.м                            -0.2: Шаг квантования
NULL.                        -9999.999: Код отсутствия
COMP.                  ООО LUKOIL-Komi: Название организации
WELL.                              134: Наименование скважины
FLD .                        Tedinskoe: Наименование площади
LOC .                                 : Расположение скважины
CTRY.                                 : Название страны
SRVC.                             PNGG: Наим.орг-ции, проводившей каротаж
DATE.                         12-08-08: Дата регистрации каротажных данных
UWI .                                 : Уникальный идентификатор скважины
~Parameter Information
#---------------------
#MNEM.UNIT  VALUE: DESCRIPTION
#----.---- -------: ---------------
~Curve Information Block
#-----------------------
#MNEM   .UNIT         : CURVE DESCRIPTION
#-------.----         : -----------------
DEPT    .м            : Колонка глубины
GK_spek .imp          : Гамма каротаж по СГК
K       .             : Содержание калия
U       .ppm          : Содержание урана
TH      .ppm          : Содержание тория
THU     .otn.ed       : Отношение TH/U
UK      .ppm          : Отношение U/K
THK     .ppm          : Отношение TH/K
АбсОтмкр.м            : Абс.отметки ПНГГ
qсгк    .             : Двойной разностной параметр по СГК
~Other Information
#-----------------
~Ascii Log Data
# ...
  3454.400    754.578      0.699      0.784      0.220      0.537      1.514      0.382  -3096.557      0.028 
  3454.200    712.773      0.684      0.743      0.256      0.541      1.395      0.453  -3096.385      0.022 
  3454.000    844.459      0.715      0.675      0.256      0.527      1.196      0.429  -3096.214      0.041 
  3453.800    959.423      0.815      0.769      0.213      0.401      1.264      0.288  -3096.042      0.057 
  3453.600    963.603      0.884      0.733      0.247      0.441      1.103      0.302  -3095.870      0.058 
  3453.400    798.474      0.933      0.479      0.250      0.448      0.555      0.308  -3095.699      0.034 
  3453.200    677.239      0.865      0.256      0.213      0.573      0.352      0.298  -3095.527      0.017 
  3453.000    723.225      0.914      0.097      0.138      0.519      0.166      0.235  -3095.355      0.023 
  3452.800    715.909      1.060      0.048      0.316      1.094      0.108      0.366  -3095.184      0.022 
  3452.600    686.645      1.090      0.311      0.284      1.007      0.399      0.319  -3095.012      0.018 
  3452.400    760.849      1.045      0.465      0.323      1.087      0.567      0.354  -3094.840      0.029 
  3452.200    751.443      0.949      0.548      0.146      0.509      0.654      0.220  -3094.669      0.027 
  3452.000    758.759      0.861      0.431      0.110      0.407      0.592      0.190  -3094.497      0.028 
  3451.800    785.932      0.881      0.435      0.000      0.100      0.599      0.100  -3094.325      0.032 
  3451.600    794.293      0.990      0.388      0.220      0.673      0.476      0.295  -3094.153      0.033 
  3451.400    807.880      0.991      0.426      0.293      0.864      0.529      0.360  -3093.982      0.035 
  3451.200    675.149      0.900      0.414      0.220      0.673      0.565      0.295  -3093.810      0.016 
  3451.000    589.449      0.842      0.476      0.000      0.100      0.679      0.100  -3093.638      0.004 
  3450.800    630.209      0.818      0.555      0.110      0.227      0.820      0.254  -3093.467      0.010 
  3450.600    680.375      0.820      0.592      0.256      0.559      0.877      0.398  -3093.295      0.017 
  3450.400    644.840      1.065      0.608      0.366      0.710      0.687      0.425  -3093.123      0.012 
  3450.200    975.099      1.335      0.822      0.256      0.519      0.640      0.255  -3092.952      0.060 
  3450.000    937.475      1.315      1.099      0.220      0.263      0.957      0.244  -3092.780      0.054 
  3449.800    938.520      1.150      1.137      0.359      0.365      1.112      0.406  -3092.607      0.054 
  3449.600    930.159      1.067      0.929      0.504      0.561      0.973      0.514  -3092.435      0.053 
  3449.400    983.460      1.074      0.745      0.359      0.489      0.761      0.385  -3092.262      0.061 
  3449.200    944.791      1.023      0.682      0.213      0.360      0.743      0.267  -3092.090      0.055 
  3449.000   1046.168      1.073      0.715      0.357      0.541      0.748      0.375  -3091.918      0.070 
  3448.800   1106.785      1.129      0.798      0.396      0.610      0.792      0.400  -3091.745      0.079 
  3448.600   1002.273      1.075      0.932      0.220      0.407      1.009      0.261  -3091.573      0.064 
  3448.400    879.993      0.914      0.918      0.110      0.265      1.130      0.229  -3091.400      0.046 
  3448.200    788.022      0.858      0.832      0.146      0.320      1.087      0.272  -3091.228      0.033 
  3448.000    816.241      0.896      0.636      0.110      0.265      0.801      0.229  -3091.055      0.037 
  3447.800    840.278      0.979      0.754      0.000      0.100      0.845      0.100  -3090.883      0.040 
  3447.600    866.406      1.096      0.888      0.323      0.368      0.873      0.342  -3090.710      0.044 
  3447.400   1454.811      1.166      1.434      0.540      0.477      1.374      0.502  -3090.538      0.129 
  3447.200   1611.579      1.043      1.550      0.469      0.394      1.711      0.447  -3090.366      0.151 
  3447.000   1177.854      0.819      1.574      0.110      0.120      2.196      0.179  -3090.193      0.089 
  3446.800    963.602      0.794      1.080      0.110      0.327      1.753      0.187  -3090.021      0.058 
  3446.600    871.632      0.915      0.625      0.256      0.738      1.001      0.309  -3089.848      0.045 
  3446.400    831.917      0.987      0.225      0.256      0.775      0.294      0.311  -3089.676      0.039 
  3446.200    807.880      0.987      0.261      0.110      0.436      0.324      0.193  -3089.503      0.035 
  3446.000    755.623      0.904      0.446      0.000      0.100      0.601      0.100  -3089.331      0.028 
  3445.800    715.909      0.819      0.669      0.000      0.100      0.993      0.100  -3089.158      0.022 
  3445.600    746.218      0.784      0.648      0.110      0.436      0.989      0.206  -3088.986      0.027 
  3445.400    761.894      0.851      0.434      0.359      1.228      0.618      0.493  -3088.813      0.029 
  3445.200    834.008      0.807      0.156      0.504      1.679      0.220      0.714  -3088.641      0.039 
  3445.000    761.894      0.751      0.160      0.359      1.228      0.245      0.581  -3088.469      0.029 
  3444.800    817.286      0.814      0.165      0.329      1.138      0.241      0.482  -3088.296      0.037 
  3444.600    779.661      0.931      0.149      0.622      2.104      0.190      0.733  -3088.124      0.031 
  3444.400    915.527      1.030      0.256      0.878      2.566      0.259      0.962  -3087.951      0.051 
  3444.200   1033.626      0.920      0.485      0.622      1.621      0.703      0.695  -3087.779      0.068 
  3444.000    822.511      0.847      0.498      0.220      0.440      0.795      0.281  -3087.606      0.038 
  3443.800    691.871      0.839      0.437      0.110      0.256      0.687      0.190  -3087.434      0.019 
  3443.600    652.156      0.905      0.308      0.366      1.010      0.358      0.516  -3087.261      0.013 
  3443.400    640.660      0.949      0.333      0.511      1.468      0.373      0.661  -3087.089      0.011 
  3443.200    627.074      0.904      0.249      0.473      1.506      0.303      0.637  -3086.916      0.009 
  3443.000    676.194      0.864      0.376      0.582      1.350      0.515      0.827  -3086.744      0.016 
  3442.800    700.232      0.752      0.341      0.547      1.137      0.519      0.859  -3086.572      0.020 
  3442.600    674.104      0.768      0.543      0.328      0.626      0.793      0.564  -3086.399      0.016 
  3442.400    744.127      0.787      0.566      0.110      0.382      0.808      0.225  -3086.227      0.026 
  3442.200    732.631      0.867      0.564      0.146      0.476      0.766      0.267  -3086.054      0.025 
  3442.000    700.232      0.944      0.245      0.220      0.718      0.333      0.318  -3085.882      0.020 
  3441.800    643.796      0.980      0.316      0.256      0.674      0.409      0.325  -3085.709      0.012 
  3441.600    692.916      0.967      0.598      0.256      0.604      0.726      0.328  -3085.537      0.019 
  3441.400    714.864      0.962      0.811      0.220      0.381      0.937      0.299  -3085.364      0.022 
  3441.200    693.961      0.925      0.732      0.146      0.306      0.882      0.230  -3085.192      0.019 
  3441.000    691.871      0.852      0.489      0.220      0.591      0.644      0.327  -3085.020      0.019 
  3440.800    647.976      0.803      0.312      0.256      0.884      0.441      0.398  -3084.847      0.012 
  3440.600    631.254      0.826      0.333      0.256      0.884      0.443      0.396  -3084.675      0.010 
  3440.400    635.435      0.911      0.567      0.110      0.436      0.673      0.225  -3084.502      0.011 
  3440.200    653.201      0.909      0.650      0.218      0.681      0.784      0.406  -3084.330      0.013 
  3440.000    668.878      0.906      0.641      0.290      0.874      0.768      0.509  -3084.157      0.015 
