~Version Information
#-------------------
VERS.        2.0: CWLS log ASCII Standart - VERSION 2.0
WRAP.         NO: One line per depth step
~Well Information Block
#----------------------
#MNEM.UNIT  VALUE: DESCRIPTION
#----.---- -------: -------------
STRT.м                            3615: Начальная глубина
STOP.м                            3296: Конечная глубина
STEP.м                            -0.2: Шаг квантования
NULL.                        -9999.999: Код отсутствия
COMP.                  ООО LUKOIL-Komi: Название организации
WELL.                              134: Наименование скважины
FLD .                        Tedinskoe: Наименование площади
LOC .                                 : Расположение скважины
CTRY.                                 : Название страны
SRVC.                             PNGG: Наим.орг-ции, проводившей каротаж
DATE.                         12-08-08: Дата регистрации каротажных данных
UWI .                                 : Уникальный идентификатор скважины
~Parameter Information
#---------------------
#MNEM.UNIT  VALUE: DESCRIPTION
#----.---- -------: ---------------
~Curve Information Block
#-----------------------
#MNEM   .UNIT         : CURVE DESCRIPTION
#-------.----         : -----------------
DEPT    .м            : Колонка глубины
GK_spek .imp          : Гамма каротаж по СГК
K       .             : Содержание калия
U       .ppm          : Содержание урана
TH      .ppm          : Содержание тория
THU     .otn.ed       : Отношение TH/U
UK      .ppm          : Отношение U/K
THK     .ppm          : Отношение TH/K
АбсОтмкр.м            : Абс.отметки ПНГГ
qсгк    .             : Двойной разностной параметр по СГК
~Other Information
#-----------------
~Ascii Log Data
# ...
  3498.200   1039.897      0.896      0.684      0.476      1.303      0.845      0.581  -3133.950      0.069 
  3498.000   1114.101      0.946      0.977      0.299      0.389      1.053      0.389  -3133.781      0.080 
  3497.800   1241.606      0.940      0.834      0.471      0.799      0.862      0.600  -3133.612      0.098 
  3497.600   1251.012      0.796      0.674      0.701      1.141      0.841      0.916  -3133.442      0.099 
  3497.400   1214.433      0.709      0.891      0.701      0.986      1.254      0.990  -3133.273      0.094 
  3497.200   1305.359      0.843      1.022      0.770      0.910      1.330      0.919  -3133.103      0.107 
  3497.000   1219.659      0.862      0.959      0.697      0.865      1.248      0.786  -3132.934      0.095 
  3496.800   1132.913      0.822      0.698      0.665      1.026      0.913      0.787  -3132.764      0.082 
  3496.600   1058.710      0.765      0.472      0.859      2.182      0.717      1.064  -3132.595      0.072 
  3496.400    994.956      0.875      0.416      0.828      2.456      0.528      0.991  -3132.425      0.062 
  3496.200   1018.995      0.869      0.612      0.457      1.592      0.776      0.566  -3132.256      0.066 
  3496.000    987.641      0.761      0.810      0.189      0.370      1.083      0.362  -3132.086      0.061 
  3495.800   1052.438      0.660      0.633      0.440      0.979      0.948      0.715  -3131.917      0.071 
  3495.600   1021.085      0.682      0.640      0.440      1.062      0.911      0.716  -3131.747      0.066 
  3495.400   1003.317      0.786      0.653      0.408      1.094      0.839      0.568  -3131.578      0.064 
  3495.200   1046.168      0.926      0.578      0.591      1.698      0.674      0.624  -3131.409      0.070 
  3495.000    983.460      0.883      0.458      0.618      1.862      0.598      0.642  -3131.239      0.061 
  3494.800    957.332      0.835      0.502      0.299      1.065      0.692      0.355  -3131.070      0.057 
  3494.600    983.460      0.717      0.802      0.000      0.100      1.298      0.100  -3130.900      0.061 
  3494.400    901.941      0.689      0.981      0.110      0.182      1.620      0.243  -3130.731      0.049 
  3494.200   1077.521      0.606      0.877      0.146      0.210      1.490      0.291  -3130.561      0.074 
  3494.000    939.565      0.601      0.667      0.110      0.182      1.141      0.243  -3130.392      0.054 
  3493.800    786.977      0.647      0.573      0.079      0.251      0.975      0.166  -3130.222      0.032 
  3493.600    765.030      0.680      0.596      0.215      0.501      0.964      0.330  -3130.053      0.029 
  3493.400    721.134      0.702      0.374      0.445      1.219      0.537      0.655  -3129.883      0.023 
  3493.200    706.503      0.747      0.285      0.403      1.235      0.403      0.642  -3129.714      0.021 
  3493.000    698.142      0.822      0.370      0.329      0.920      0.458      0.509  -3129.544      0.020 
  3492.800    711.728      0.839      0.511      0.146      0.258      0.632      0.245  -3129.375      0.022 
  3492.600    756.669      0.720      0.413      0.299      0.818      0.556      0.508  -3129.205      0.028 
  3492.400    697.097      0.700      0.244      0.362      1.195      0.351      0.608  -3129.036      0.019 
  3492.200    696.052      0.678      0.135      0.555      1.796      0.230      0.863  -3128.867      0.019 
  3492.000    731.586      0.734      0.273      0.512      1.493      0.379      0.738  -3128.697      0.024 
  3491.800    692.916      0.778      0.297      0.540      1.567      0.389      0.726  -3128.528      0.019 
  3491.600    737.856      0.847      0.262      0.561      1.697      0.344      0.661  -3128.358      0.025 
  3491.400    693.961      0.873      0.203      0.467      1.586      0.265      0.577  -3128.189      0.019 
  3491.200    809.970      0.753      0.424      0.329      0.907      0.760      0.543  -3128.019      0.036 
  3491.000    675.149      0.597      0.547      0.256      0.576      1.045      0.586  -3127.850      0.016 
  3490.800    721.134      0.558      0.390      0.476      1.355      0.821      0.836  -3127.680      0.023 
  3490.600    711.728      0.625      0.422      0.467      1.407      0.751      0.723  -3127.511      0.022 
  3490.400    736.811      0.645      0.560      0.305      0.849      0.949      0.460  -3127.341      0.025 
  3490.200    728.450      0.740      0.476      0.394      1.203      0.844      0.453  -3127.172      0.024 
  3490.000    742.037      0.841      0.208      0.549      1.860      0.364      0.579  -3127.002      0.026 
  3489.800    719.044      0.836      0.096      0.805      2.684      0.190      0.969  -3126.832      0.023 
  3489.600    670.969      0.826      0.165      0.549      1.860      0.224      0.805  -3126.662      0.016 
  3489.400    724.270      0.841      0.183      0.549      1.870      0.233      0.838  -3126.491      0.023 
  3489.200    695.006      0.808      0.171      0.577      1.952      0.234      0.858  -3126.321      0.019 
  3489.000    685.601      0.743      0.138      0.708      2.360      0.223      0.981  -3126.151      0.018 
  3488.800    646.931      0.802      0.157      0.540      1.800      0.218      0.699  -3125.980      0.012 
  3488.600    701.277      0.840      0.148      0.540      1.800      0.207      0.640  -3125.810      0.020 
  3488.400    667.833      0.772      0.194      0.488      1.658      0.336      0.606  -3125.640      0.015 
  3488.200    693.961      0.759      0.298      0.284      1.016      0.466      0.403  -3125.469      0.019 
  3488.000    688.736      0.690      0.451      0.110      0.270      0.708      0.275  -3125.299      0.018 
  3487.800    655.292      0.724      0.534      0.146      0.326      0.784      0.334  -3125.129      0.013 
  3487.600    702.322      0.708      0.606      0.220      0.439      0.871      0.398  -3124.958      0.020 
  3487.400    737.857      0.754      0.557      0.256      0.551      0.735      0.385  -3124.788      0.025 
  3487.200    750.398      0.621      0.447      0.476      1.142      0.753      0.927  -3124.618      0.027 
  3487.000    729.496      0.578      0.417      0.403      1.089      0.764      0.945  -3124.447      0.024 
  3486.800    717.999      0.581      0.475      0.220      0.673      0.839      0.643  -3124.277      0.022 
  3486.600    711.728      0.700      0.519      0.110      0.302      0.756      0.207  -3124.107      0.022 
  3486.400    676.194      0.776      0.366      0.476      1.438      0.546      0.584  -3123.936      0.016 
  3486.200    714.864      0.869      0.179      0.769      2.429      0.258      0.873  -3123.766      0.022 
  3486.000    766.075      0.902      0.087      0.842      2.806      0.126      0.935  -3123.596      0.029 
  3485.800    790.113      0.802      0.228      0.512      1.738      0.348      0.595  -3123.425      0.033 
  3485.600    742.037      0.741      0.403      0.329      0.956      0.594      0.417  -3123.255      0.026 
  3485.400    712.774      0.706      0.485      0.256      0.587      0.693      0.365  -3123.085      0.022 
  3485.200    749.353      0.787      0.427      0.366      0.907      0.542      0.469  -3122.914      0.027 
  3485.000    735.766      0.750      0.495      0.256      0.751      0.700      0.356  -3122.744      0.025 
  3484.800    735.766      0.771      0.470      0.439      1.446      0.675      0.557  -3122.574      0.025 
  3484.600    745.172      0.770      0.540      0.549      1.626      0.748      0.688  -3122.403      0.026 
  3484.400    752.488      0.825      0.365      0.690      1.988      0.484      0.829  -3122.233      0.027 
  3484.200    679.330      0.726      0.533      0.395      1.114      0.916      0.508  -3122.063      0.017 
  3484.000    766.075      0.629      0.557      0.434      1.125      1.087      0.669  -3121.892      0.029 
  3483.800    738.901      0.584      0.592      0.622      1.623      1.077      1.026  -3121.722      0.025 
