~Version Information
#-------------------
VERS.        2.0: CWLS log ASCII Standart - VERSION 2.0
WRAP.         NO: One line per depth step
~Well Information Block
#----------------------
#MNEM.UNIT  VALUE: DESCRIPTION
#----.---- -------: -------------
STRT.м                            3615: Начальная глубина
STOP.м                            3296: Конечная глубина
STEP.м                            -0.2: Шаг квантования
NULL.                        -9999.999: Код отсутствия
COMP.                  ООО LUKOIL-Komi: Название организации
WELL.                              134: Наименование скважины
FLD .                        Tedinskoe: Наименование площади
LOC .                                 : Расположение скважины
CTRY.                                 : Название страны
SRVC.                             PNGG: Наим.орг-ции, проводившей каротаж
DATE.                         12-08-08: Дата регистрации каротажных данных
UWI .                                 : Уникальный идентификатор скважины
~Parameter Information
#---------------------
#MNEM.UNIT  VALUE: DESCRIPTION
#----.---- -------: ---------------
~Curve Information Block
#-----------------------
#MNEM   .UNIT         : CURVE DESCRIPTION
#-------.----         : -----------------
DEPT    .м            : Колонка глубины
GK_spek .imp          : Гамма каротаж по СГК
K       .             : Содержание калия
U       .ppm          : Содержание урана
TH      .ppm          : Содержание тория
THU     .otn.ed       : Отношение TH/U
UK      .ppm          : Отношение U/K
THK     .ppm          : Отношение TH/K
АбсОтмкр.м            : Абс.отметки ПНГГ
qсгк    .             : Двойной разностной параметр по СГК
~Other Information
#-----------------
~Ascii Log Data
# ...
  3571.200    731.586      0.695      0.372      0.310      1.072      0.515      0.526  -3196.536      0.024 
  3571.000    745.172      0.778      0.218      0.805      2.714      0.343      0.927  -3196.362      0.026 
  3570.800    770.255      0.844      0.097      1.098      3.632      0.182      1.175  -3196.187      0.030 
  3570.600    745.173      0.854      0.167      0.915      3.013      0.235      0.978  -3196.012      0.026 
  3570.400    703.367      0.833      0.254      0.256      0.856      0.290      0.377  -3195.838      0.020 
  3570.200    672.014      0.840      0.292      0.329      0.990      0.341      0.490  -3195.663      0.016 
  3570.000    685.600      0.953      0.350      0.622      1.878      0.382      0.703  -3195.489      0.018 
  3569.800    659.472      0.920      0.374      0.878      2.488      0.428      0.951  -3195.314      0.014 
  3569.600    680.375      0.947      0.276      1.061      3.171      0.342      1.114  -3195.140      0.017 
  3569.400    661.563      0.846      0.229      1.025      3.151      0.337      1.180  -3194.966      0.014 
  3569.200    700.232      0.754      0.440      0.842      2.529      0.758      1.047  -3194.792      0.020 
  3569.000    641.705      0.698      0.516      0.586      1.591      0.903      0.820  -3194.618      0.011 
  3568.800    643.796      0.773      0.319      0.512      1.446      0.631      0.666  -3194.444      0.012 
  3568.600    689.781      0.832      0.037      0.476      1.586      0.119      0.573  -3194.270      0.018 
  3568.400    637.525      0.801      0.121      0.256      0.884      0.187      0.349  -3194.096      0.011 
  3568.200    638.570      0.841      0.132      0.220      0.772      0.201      0.295  -3193.922      0.011 
  3568.000    632.299      0.794      0.169      0.256      0.856      0.323      0.389  -3193.748      0.010 
  3567.800    597.810      0.739      0.130      0.366      1.183      0.316      0.539  -3193.573      0.005 
  3567.600    617.667      0.593      0.194      0.256      0.856      0.448      0.437  -3193.399      0.008 
  3567.400    635.434      0.692      0.164      0.110      0.436      0.355      0.213  -3193.225      0.011 
  3567.200    610.351      0.703      0.347      0.000      0.100      0.585      0.100  -3193.051      0.007 
  3567.000    644.840      0.759      0.429      0.110      0.339      0.630      0.219  -3192.877      0.012 
  3566.800    690.826      0.711      0.483      0.236      0.621      0.696      0.348  -3192.703      0.019 
  3566.600    663.653      0.754      0.278      0.449      1.310      0.403      0.591  -3192.529      0.015 
  3566.400    690.826      0.834      0.340      0.473      1.329      0.420      0.588  -3192.355      0.019 
  3566.200    748.308      0.822      0.298      0.559      1.625      0.359      0.748  -3192.181      0.027 
  3566.000    664.698      0.798      0.296      0.493      1.463      0.353      0.685  -3192.006      0.015 
  3565.800    687.691      0.757      0.214      0.566      1.730      0.295      0.774  -3191.832      0.018 
  3565.600    672.014      0.809      0.229      0.596      1.778      0.315      0.738  -3191.658      0.016 
  3565.400    679.330      0.892      0.118      0.602      1.852      0.217      0.711  -3191.484      0.017 
  3565.200    696.051      0.930      0.144      0.476      1.449      0.242      0.536  -3191.310      0.019 
  3565.000    664.698      0.883      0.370      0.256      0.702      0.500      0.306  -3191.136      0.015 
  3564.800    745.172      0.836      0.439      0.310      0.935      0.552      0.379  -3190.962      0.026 
  3564.600    734.721      0.817      0.301      0.466      1.584      0.385      0.592  -3190.788      0.025 
  3564.400    684.555      0.865      0.119      0.776      2.586      0.177      0.902  -3190.614      0.018 
  3564.200    770.255      0.833      0.213      0.703      2.204      0.325      0.822  -3190.440      0.030 
  3564.000    715.909      0.848      0.222      0.539      1.614      0.353      0.604  -3190.265      0.022 
  3563.800    736.811      0.770      0.167      0.676      2.114      0.289      0.919  -3190.091      0.025 
  3563.600    714.864      0.715      0.187      0.985      2.782      0.375      1.434  -3189.917      0.022 
  3563.400    807.880      0.688      0.250      1.375      3.912      0.466      1.967  -3189.743      0.035 
  3563.200    695.006      0.732      0.187      1.461      4.367      0.375      1.973  -3189.569      0.019 
  3563.000    732.631      0.858      0.175      1.464      4.348      0.240      1.767  -3189.395      0.025 
  3562.800    699.187      0.953      0.233      1.208      3.317      0.287      1.302  -3189.221      0.020 
  3562.600    740.992      0.895      0.379      0.878      2.192      0.541      0.936  -3189.047      0.026 
  3562.400    790.113      0.759      0.379      0.676      1.874      0.624      0.849  -3188.873      0.033 
  3562.200    822.511      0.733      0.347      0.946      2.809      0.564      1.196  -3188.698      0.038 
  3562.000    784.887      0.775      0.107      1.244      4.043      0.222      1.548  -3188.524      0.032 
  3561.800    814.150      0.728      0.000      1.169      3.898      0.100      1.545  -3188.350      0.036 
  3561.600    802.654      0.653      0.227      0.797      2.216      0.409      1.217  -3188.176      0.035 
  3561.400    864.316      0.722      0.410      0.622      1.424      0.602      0.918  -3188.002      0.044 
  3561.200    821.466      0.842      0.371      0.761      2.013      0.529      0.914  -3187.828      0.037 
  3561.000    871.632      0.849      0.204      0.746      2.404      0.299      0.846  -3187.654      0.045 
  3560.800    774.436      0.816      0.282      0.651      1.988      0.393      0.762  -3187.480      0.031 
  3560.600    804.744      0.782      0.302      0.761      2.311      0.405      0.996  -3187.306      0.035 
  3560.400    868.497      0.877      0.415      0.783      2.486      0.467      1.047  -3187.132      0.044 
  3560.200    830.872      0.886      0.347      0.834      2.820      0.394      1.115  -3186.957      0.039 
  3560.000    830.872      0.973      0.404      0.769      2.180      0.418      0.865  -3186.783      0.039 
  3559.800    877.903      0.953      0.310      0.769      2.042      0.336      0.827  -3186.610      0.046 
  3559.600    836.098      0.862      0.597      0.329      0.755      0.811      0.363  -3186.437      0.040 
  3559.400    771.300      0.756      0.615      0.065      0.260      0.924      0.145  -3186.264      0.030 
  3559.200    769.210      0.810      0.493      0.197      0.650      0.723      0.245  -3186.091      0.030 
  3559.000    796.383      0.910      0.230      0.322      1.045      0.255      0.352  -3185.918      0.034 
  3558.800    782.797      0.867      0.231      0.366      1.159      0.278      0.426  -3185.745      0.032 
  3558.600    771.300      0.802      0.191      0.431      1.356      0.276      0.542  -3185.572      0.030 
  3558.400    795.338      0.742      0.108      0.563      1.815      0.215      0.767  -3185.399      0.034 
  3558.200    819.376      0.765      0.000      1.017      3.390      0.100      1.294  -3185.226      0.037 
  3558.000    791.158      0.869      0.237      0.952      3.202      0.291      1.206  -3185.053      0.033 
  3557.800    790.112      0.890      0.413      0.769      2.551      0.467      1.004  -3184.880      0.033 
  3557.600    820.421      0.794      0.509      0.293      0.968      0.625      0.492  -3184.707      0.037 
  3557.400    761.894      0.711      0.287      0.549      1.819      0.457      0.776  -3184.534      0.029 
  3557.200    734.721      0.779      0.179      0.659      2.226      0.295      0.834  -3184.361      0.025 
  3557.000    702.322      0.841      0.273      0.842      2.366      0.349      1.009  -3184.188      0.020 
  3556.800    832.963      0.824      0.518      0.718      1.461      0.637      0.873  -3184.015      0.039 
