~Version Information
#-------------------
VERS.        2.0: CWLS log ASCII Standart - VERSION 2.0
WRAP.         NO: One line per depth step
~Well Information Block
#----------------------
#MNEM.UNIT  VALUE: DESCRIPTION
#----.---- -------: -------------
STRT.м                            3615: Начальная глубина
STOP.м                            3296: Конечная глубина
STEP.м                            -0.2: Шаг квантования
NULL.                        -9999.999: Код отсутствия
COMP.                  ООО LUKOIL-Komi: Название организации
WELL.                              134: Наименование скважины
FLD .                        Tedinskoe: Наименование площади
LOC .                                 : Расположение скважины
CTRY.                                 : Название страны
SRVC.                             PNGG: Наим.орг-ции, проводившей каротаж
DATE.                         12-08-08: Дата регистрации каротажных данных
UWI .                                 : Уникальный идентификатор скважины
~Parameter Information
#---------------------
#MNEM.UNIT  VALUE: DESCRIPTION
#----.---- -------: ---------------
~Curve Information Block
#-----------------------
#MNEM   .UNIT         : CURVE DESCRIPTION
#-------.----         : -----------------
DEPT    .м            : Колонка глубины
GK_spek .imp          : Гамма каротаж по СГК
K       .             : Содержание калия
U       .ppm          : Содержание урана
TH      .ppm          : Содержание тория
THU     .otn.ed       : Отношение TH/U
UK      .ppm          : Отношение U/K
THK     .ppm          : Отношение TH/K
АбсОтмкр.м            : Абс.отметки ПНГГ
qсгк    .             : Двойной разностной параметр по СГК
~Other Information
#-----------------
~Ascii Log Data
# ...
  3366.800   4471.033      2.940      0.462      6.319     17.505      0.217      2.207  -3020.187      0.564 
  3366.600   4312.174      2.586      0.783      5.584     10.382      0.331      2.255  -3020.010      0.541 
  3366.400   3823.059      2.316      0.662      5.748     10.951      0.317      2.628  -3019.833      0.471 
  3366.200   3581.635      2.461      0.652      5.949     12.333      0.288      2.624  -3019.657      0.436 
  3366.000   4773.072      2.887      0.601      6.131     15.089      0.251      2.305  -3019.480      0.608 
  3365.800   4634.071      3.230      0.473      5.595     14.640      0.213      1.778  -3019.303      0.588 
  3365.600   3933.843      3.085      0.037      5.232     17.441      0.100      1.751  -3019.126      0.487 
  3365.400   3386.199      2.670      0.393      3.731     11.073      0.258      1.421  -3018.949      0.408 
  3365.200   3035.037      2.277      0.939      3.005      5.903      0.497      1.354  -3018.772      0.357 
  3365.000   2820.787      2.172      1.060      2.783      4.112      0.527      1.344  -3018.595      0.326 
  3364.800   2930.525      2.240      0.657      3.408      8.058      0.325      1.590  -3018.418      0.342 
  3364.600   2928.434      2.402      0.234      4.180     13.162      0.135      1.803  -3018.241      0.342 
  3364.400   2952.473      2.350      0.299      4.932     13.295      0.185      2.207  -3018.064      0.345 
  3364.200   3278.551      2.345      1.021      4.612      8.956      0.485      2.093  -3017.887      0.392 
  3364.000   3428.002      2.432      1.199      4.542      9.014      0.555      1.968  -3017.711      0.414 
  3363.800   3348.574      2.577      0.998      4.416      9.975      0.463      1.755  -3017.534      0.402 
  3363.600   3151.046      2.458      0.604      4.896      9.734      0.302      2.081  -3017.357      0.374 
  3363.400   3003.684      2.166      0.952      3.466      3.901      0.473      1.640  -3017.180      0.352 
  3363.200   2185.352      1.794      0.724      2.695      4.639      0.418      1.599  -3017.003      0.234 
  3363.000   1849.867      1.537      0.511      1.797      4.505      0.355      1.341  -3016.826      0.186 
  3362.800   1835.235      1.431      0.594      1.415      3.679      0.462      1.096  -3016.649      0.184 
  3362.600   1872.860      1.499      1.247      1.067      1.146      0.883      0.755  -3016.472      0.189 
  3362.400   1955.425      1.553      1.490      1.613      1.153      1.027      1.085  -3016.295      0.201 
  3362.200   1967.967      1.549      1.330      1.978      1.592      0.917      1.344  -3016.118      0.203 
  3362.000   1890.627      1.450      0.940      1.870      2.052      0.691      1.379  -3015.941      0.192 
  3361.800   1625.166      1.298      0.573      1.742      3.519      0.484      1.493  -3015.764      0.153 
  3361.600   1566.640      1.362      0.622      1.413      3.596      0.474      1.296  -3015.588      0.145 
  3361.400   1625.166      1.459      0.968      1.158      2.456      0.688      1.021  -3015.411      0.153 
  3361.200   1602.173      1.482      1.131      1.455      1.885      0.808      1.167  -3015.234      0.150 
  3361.000   1627.256      1.335      0.866      2.059      2.869      0.693      1.674  -3015.057      0.154 
  3360.800   1695.190      1.385      0.796      2.056      2.828      0.615      1.621  -3014.880      0.164 
  3360.600   1881.221      1.647      0.754      1.905      3.267      0.531      1.286  -3014.703      0.190 
  3360.400   2190.577      1.772      0.562      1.886      4.356      0.357      1.156  -3014.526      0.235 
  3360.200   2013.952      1.768      0.250      2.382      7.318      0.189      1.442  -3014.349      0.210 
  3360.000   1739.085      1.612      0.119      2.457      7.736      0.155      1.573  -3014.172      0.170 
  3359.800   1393.149      1.557      0.337      1.797      5.721      0.320      1.159  -3013.995      0.120 
  3359.600   1292.818      1.423      0.569      0.971      2.560      0.459      0.739  -3013.817      0.105 
  3359.400   1270.870      1.338      0.584      0.844      2.118      0.457      0.689  -3013.639      0.102 
  3359.200   1307.448      1.331      0.422      1.005      2.471      0.336      0.810  -3013.462      0.108 
  3359.000   1322.081      1.342      0.334      0.874      2.170      0.290      0.698  -3013.284      0.110 
  3358.800   1221.749      1.385      0.354      0.835      1.888      0.306      0.647  -3013.106      0.095 
  3358.600   1286.546      1.344      0.226      1.167      3.438      0.234      0.948  -3012.929      0.105 
  3358.400   1194.575      1.246      0.390      1.421      3.755      0.413      1.250  -3012.751      0.091 
  3358.200   1258.328      1.213      0.371      1.642      4.618      0.412      1.449  -3012.573      0.100 
  3358.000   1279.231      1.267      0.323      2.376      7.275      0.351      1.968  -3012.396      0.104 
  3357.800   1378.518      1.253      0.498      2.306      7.715      0.583      1.845  -3012.218      0.118 
  3357.600   1425.548      1.296      1.149      1.537      4.544      1.051      1.221  -3012.040      0.125 
  3357.400   2213.570      1.480      1.419      1.165      1.398      1.116      0.745  -3011.863      0.238 
  3357.200   2065.163      1.574      1.051      1.931      2.669      0.704      1.321  -3011.685      0.217 
  3357.000   1610.534      1.359      0.752      1.823      2.679      0.634      1.381  -3011.507      0.151 
  3356.800   1229.065      1.195      0.666      1.388      3.042      0.628      1.240  -3011.330      0.096 
  3356.600   1211.298      1.311      0.418      1.606      4.839      0.430      1.290  -3011.152      0.094 
  3356.400   1313.720      1.495      0.493      1.750      4.988      0.385      1.278  -3010.974      0.108 
  3356.200   1429.728      1.426      0.541      1.972      5.445      0.419      1.686  -3010.797      0.125 
  3356.000   1447.496      1.323      0.536      2.043      5.405      0.406      1.898  -3010.619      0.128 
  3355.800   1562.459      1.410      0.386      2.155      5.385      0.287      1.829  -3010.441      0.144 
  3355.600   1809.108      1.465      1.236      1.497      2.375      1.096      1.069  -3010.264      0.180 
  3355.400   1982.598      1.570      1.414      1.281      2.147      1.287      0.854  -3010.086      0.205 
  3355.200   2140.412      1.709      1.055      1.677      4.566      0.952      1.007  -3009.908      0.228 
  3355.000   2275.233      1.863      0.559      2.251      5.587      0.337      1.291  -3009.731      0.247 
  3354.800   2046.350      1.694      1.228      1.957      3.681      0.817      1.194  -3009.553      0.214 
  3354.600   1921.981      1.653      1.256      2.146      4.731      0.885      1.328  -3009.375      0.196 
  3354.400   2209.390      1.795      1.052      2.704      6.184      0.706      1.547  -3009.198      0.238 
  3354.200   2702.689      2.143      1.052      3.547      5.607      0.505      1.775  -3009.020      0.309 
  3354.000   3488.620      2.399      1.710      3.209      1.945      0.737      1.398  -3008.842      0.422 
  3353.800   3521.018      2.651      1.587      3.990      3.468      0.639      1.532  -3008.665      0.427 
  3353.600   3954.744      2.721      1.016      4.698      7.281      0.404      1.761  -3008.487      0.490 
  3353.400   3548.192      2.653      0.394      5.125     11.641      0.174      2.001  -3008.309      0.431 
  3353.200   2799.884      2.258      0.589      3.575      9.685      0.372      1.564  -3008.132      0.323 
  3353.000   2305.542      1.841      0.734      2.160      5.737      0.489      1.160  -3007.954      0.252 
  3352.800   1884.357      1.576      0.615      2.086      5.695      0.420      1.454  -3007.776      0.191 
  3352.600   1908.395      1.526      0.333      2.422      6.960      0.269      1.713  -3007.599      0.194 
  3352.400   1818.514      1.558      0.428      2.172      5.658      0.319      1.513  -3007.421      0.181 
