~Version Information
#-------------------
VERS.        2.0: CWLS log ASCII Standart - VERSION 2.0
WRAP.         NO: One line per depth step
~Well Information Block
#----------------------
#MNEM.UNIT  VALUE: DESCRIPTION
#----.---- -------: -------------
STRT.м                          2167.4: Начальная глубина
STOP.м                            3615: Конечная глубина
STEP.м                             0.2: Шаг квантования
NULL.                         -9999.99: Код отсутствия
COMP.                  ООО LUKOIL-Komi: Название организации
WELL.                              134: Наименование скважины
FLD .                        Tedinskoe: Наименование площади
LOC .                                 : Расположение скважины
CTRY.                                 : Название страны
SRVC.                             PNGG: Наим.орг-ции, проводившей каротаж
DATE.                        10.08.08 : Дата регистрации каротажных данных
UWI .                                 : Уникальный идентификатор скважины
~Parameter Information
#---------------------
#MNEM.UNIT  VALUE: DESCRIPTION
#----.---- -------: ---------------
BS  .м      0.22: Диаметр долота
~Curve Information Block
#-----------------------
#MNEM   .UNIT          : CURVE DESCRIPTION
#-------.----          : -----------------
DEPT    .m             : Колонка глубины
GR      .ur/hr         : Гамма каротаж
IK      .msm/m         : Индукционный каротаж аппаратурой АИК-5 (активная составляющая)
GZ4     .Omm           : Градиент-зонд  длиной 4.5м
PZ      .Omm           : Потенциал-зонд A0.5M6.5N
DS      .mm            : Каверномер
BS      .mm            : Номинальный диаметр 215.9мм
PS      .mV            : Потенциал самополяризации
RRA1    .mm            : Радиус1
RRB_1   .Omm           : Резистивиметр
RRA2    .mm            : Радиус2
RRA3    .mm            : Радиус3
RRA4    .mm            : Радиус4
C1      .mm            : Профиль1
C2      .mm            : Профиль2
PEF     .m3            : Суммарный объем скважины
PEF     .m3            : Объем затрубья
АбсОтмкр.m             : Абсолютные отметки ПНГГ
TEMP    .grad          : Температура
~Other Information
#-----------------
tool=СРК
mode=ННКт
id=59
tool=АИК-5
mode=Основной
id=42
tool=ЭК-1
mode=БК
id=5
tool=ЭК-1
mode=БКЗ
id=5
tool=ИНС-60
mode=Основной
id=260


~Ascii Log Data
# ...
  2573.000      4.997     38.155     27.444     13.111    222.938    215.900     42.692    116.869      0.234    106.069    116.869    106.069    233.998    212.137     40.013     14.153  -2340.096     53.734 
  2573.200      4.959     37.967     27.246     13.214    222.305    215.900     43.054    116.236      0.234    106.069    116.236    106.069    234.051    212.137     40.005     14.150  -2340.267     53.730 
  2573.400      4.953     38.028     27.268     13.265    223.634    215.900     43.706    117.565      0.234    106.069    117.565    106.069    234.136    212.137     39.998     14.147  -2340.439     53.736 
  2573.600      4.860     38.370     27.643     13.316    223.249    215.900     44.383    117.180      0.234    106.069    117.180    106.069    234.197    212.137     39.990     14.145  -2340.610     53.741 
  2573.800      4.844     39.098     27.733     13.316    223.867    215.900     44.870    117.798      0.231    106.069    117.798    106.069    234.220    212.137     39.982     14.142  -2340.781     53.744 
  2574.000      4.486     38.964     27.643     13.409    222.938    215.900     45.140    116.869      0.234    106.069    116.869    106.069    234.164    212.137     39.974     14.139  -2340.952     53.754 
  2574.200      4.818     39.032     28.040     13.419    222.860    215.900     45.350    116.998      0.234    105.862    116.998    105.862    234.071    211.724     39.966     14.136  -2341.123     53.754 
  2574.400      5.066     38.638     28.768     13.419    222.983    215.900     45.736    116.914      0.234    106.069    116.914    106.069    233.947    212.137     39.958     14.133  -2341.294     53.749 
  2574.600      4.555     38.541     29.401     13.470    223.133    215.900     46.363    116.963      0.234    106.171    116.963    106.171    233.844    212.341     39.951     14.130  -2341.466     53.750 
  2574.800      4.494     38.283     29.664     13.419    223.130    215.900     47.035    116.869      0.234    106.261    116.869    106.261    233.800    212.522     39.943     14.127  -2341.637     53.754 
  2575.000      4.809     38.276     30.323     13.419    222.485    215.900     47.341    116.250      0.234    106.235    116.250    106.235    233.842    212.469     39.935     14.125  -2341.808     53.747 
  2575.200      4.726     38.430     30.951     13.419    222.878    215.900     46.999    116.809      0.234    106.069    116.809    106.069    233.926    212.137     39.927     14.122  -2341.979     53.753 
  2575.400      4.566     38.536     31.381     13.419    223.635    215.900     46.001    117.566      0.234    106.069    117.566    106.069    234.052    212.137     39.919     14.119  -2342.150     53.759 
  2575.600      5.140     38.658     31.663     13.470    223.097    215.900     44.646    116.869      0.234    106.228    116.869    106.228    234.181    212.456     39.911     14.116  -2342.322     53.754 
  2575.800      5.280     38.671     31.954     13.419    223.888    215.900     43.342    117.475      0.234    106.414    117.475    106.414    234.264    212.827     39.904     14.113  -2342.493     53.747 
  2576.000      4.930     38.822     33.116     13.419    224.178    215.900     42.422    117.218      0.234    106.961    117.218    106.961    234.271    213.921     39.896     14.110  -2342.664     53.757 
  2576.200      4.597     38.870     33.678     13.391    223.856    215.900     41.977    117.489      0.234    106.368    117.489    106.368    234.244    212.735     39.888     14.107  -2342.835     53.753 
  2576.400      4.662     39.343     33.995     13.316    223.114    215.900     41.832    116.746      0.234    106.368    116.746    106.368    234.181    212.735     39.880     14.105  -2343.006     53.753 
  2576.600      5.029     39.516     34.109     13.282    223.383    215.900     41.676    116.869      0.234    106.514    116.869    106.514    234.099    213.027     39.872     14.102  -2343.177     53.763 
  2576.800      4.926     40.107     34.776     13.185    223.689    215.900     41.270    117.130      0.234    106.559    117.130    106.559    234.029    213.119     39.864     14.099  -2343.349     53.774 
  2577.000      4.634     40.722     35.166     13.074    223.392    215.900     40.560    116.869      0.239    106.523    116.869    106.523    234.011    213.046     39.856     14.096  -2343.520     53.766 
  2577.200      4.643     41.659     35.583     12.962    223.589    215.900     39.705    117.002      0.239    106.587    117.002    106.587    234.032    213.173     39.849     14.093  -2343.691     53.773 
  2577.400      4.817     42.725     35.782     12.702    223.726    215.900     38.954    117.140      0.234    106.587    117.140    106.587    234.115    213.173     39.841     14.090  -2343.862     53.771 
  2577.600      5.081     43.882     35.914     12.505    223.456    215.900     38.544    116.869      0.234    106.587    116.869    106.587    234.281    213.173     39.833     14.087  -2344.033     53.767 
  2577.800      5.658     45.054     36.065     12.292    223.084    215.900     38.514    116.869      0.234    106.214    116.869    106.214    234.532    212.429     39.825     14.085  -2344.204     53.766 
  2578.000      5.638     46.580     36.179     12.155    223.252    215.900     38.740    117.135      0.234    106.117    117.135    106.117    234.830    212.235     39.817     14.082  -2344.376     53.776 
  2578.200      5.768     47.545     35.980     11.991    224.422    215.900     39.022    117.798      0.234    106.624    117.798    106.624    235.144    213.248     39.809     14.079  -2344.547     53.774 
  2578.400      5.871     48.526     35.691     11.789    225.201    215.900     39.259    118.030      0.234    107.171    118.030    107.171    235.421    214.342     39.802     14.076  -2344.718     53.784 
  2578.600      5.934     48.938     35.385     11.595    225.442    215.900     39.452    118.271      0.234    107.171    118.271    107.171    235.601    214.342     39.794     14.073  -2344.889     53.784 
  2578.800      6.324     49.435     35.385     11.443    225.201    215.900     39.633    118.030      0.234    107.171    118.030    107.171    235.647    214.342     39.786     14.070  -2345.060     53.779 
  2579.000      5.511     50.168     35.583     11.242    225.222    215.900     39.818    118.051      0.234    107.171    118.051    107.171    235.578    214.342     39.778     14.067  -2345.231     53.771 
  2579.200      5.174     51.383     35.424     10.988    224.781    215.900     40.033    117.610      0.234    107.171    117.610    107.171    235.434    214.342     39.770     14.064  -2345.403     53.768 
  2579.400      5.609     53.502     35.683     10.653    224.598    215.900     40.313    117.427      0.239    107.171    117.427    107.171    235.272    214.342     39.762     14.061  -2345.574     53.761 
  2579.600      5.343     56.224     36.157     10.280    224.899    215.900     40.662    117.728      0.239    107.171    117.728    107.171    235.200    214.342     39.754     14.058  -2345.745     53.766 
  2579.800      4.812     59.511     36.576      9.859    224.109    215.900     41.042    116.938      0.239    107.171    116.938    107.171    235.315    214.342     39.746     14.055  -2345.916     53.772 
  2580.000      5.448     63.310     36.016      9.335    224.408    215.900     41.459    117.237      0.239    107.171    117.237    107.171    235.659    214.342     39.738     14.052  -2346.087     53.780 
  2580.200      6.405     67.713     34.942      8.901    224.814    215.900     42.008    117.643      0.239    107.171    117.643    107.171    236.253    214.342     39.730     14.049  -2346.259     53.789 
  2580.400      7.510     71.930     33.002      8.527    224.492    215.900     42.748    117.902      0.239    106.590    117.902    106.590    237.081    213.180     39.722     14.046  -2346.431     53.791 
  2580.600      8.520     74.872     30.685      8.271    224.872    215.900     43.622    118.728      0.234    106.143    118.728    106.143    237.989    212.287     39.714     14.043  -2346.602     53.785 
