~Version Information
#-------------------
VERS.        2.0: CWLS log ASCII Standart - VERSION 2.0
WRAP.         NO: One line per depth step
~Well Information Block
#----------------------
#MNEM.UNIT  VALUE: DESCRIPTION
#----.---- -------: -------------
STRT.м                          2167.4: Начальная глубина
STOP.м                            3615: Конечная глубина
STEP.м                             0.2: Шаг квантования
NULL.                         -9999.99: Код отсутствия
COMP.                  ООО LUKOIL-Komi: Название организации
WELL.                              134: Наименование скважины
FLD .                        Tedinskoe: Наименование площади
LOC .                                 : Расположение скважины
CTRY.                                 : Название страны
SRVC.                             PNGG: Наим.орг-ции, проводившей каротаж
DATE.                        10.08.08 : Дата регистрации каротажных данных
UWI .                                 : Уникальный идентификатор скважины
~Parameter Information
#---------------------
#MNEM.UNIT  VALUE: DESCRIPTION
#----.---- -------: ---------------
BS  .м      0.22: Диаметр долота
~Curve Information Block
#-----------------------
#MNEM   .UNIT          : CURVE DESCRIPTION
#-------.----          : -----------------
DEPT    .m             : Колонка глубины
GR      .ur/hr         : Гамма каротаж
IK      .msm/m         : Индукционный каротаж аппаратурой АИК-5 (активная составляющая)
GZ4     .Omm           : Градиент-зонд  длиной 4.5м
PZ      .Omm           : Потенциал-зонд A0.5M6.5N
DS      .mm            : Каверномер
BS      .mm            : Номинальный диаметр 215.9мм
PS      .mV            : Потенциал самополяризации
RRA1    .mm            : Радиус1
RRB_1   .Omm           : Резистивиметр
RRA2    .mm            : Радиус2
RRA3    .mm            : Радиус3
RRA4    .mm            : Радиус4
C1      .mm            : Профиль1
C2      .mm            : Профиль2
PEF     .m3            : Суммарный объем скважины
PEF     .m3            : Объем затрубья
АбсОтмкр.m             : Абсолютные отметки ПНГГ
TEMP    .grad          : Температура
~Other Information
#-----------------
tool=СРК
mode=ННКт
id=59
tool=АИК-5
mode=Основной
id=42
tool=ЭК-1
mode=БК
id=5
tool=ЭК-1
mode=БКЗ
id=5
tool=ИНС-60
mode=Основной
id=260


~Ascii Log Data
# ...
  2666.600      2.124      5.606    126.862     33.291    218.526    215.900     39.128    110.491      0.244    108.034    110.491    108.034    220.441    216.069     35.642     12.111  -2420.452     55.617 
  2666.800      2.420      6.535    128.161     33.260    218.143    215.900     40.397    110.030      0.245    108.113    110.030    108.113    220.766    216.226     35.635     12.109  -2420.623     55.628 
  2667.000      2.752      7.411    128.685     33.188    219.383    215.900     41.947    111.269      0.249    108.113    111.269    108.113    221.233    216.226     35.627     12.106  -2420.793     55.634 
  2667.200      3.126      7.143    126.739     33.291    219.265    215.900     43.630    111.080      0.241    108.186    111.080    108.186    221.855    216.371     35.620     12.104  -2420.964     55.630 
  2667.400      3.904      6.047    125.012     33.291    218.598    215.900     45.131    110.564      0.249    108.034    110.564    108.034    222.590    216.068     35.612     12.101  -2421.135     55.632 
  2667.600      5.322      4.441    126.105     33.393    219.247    215.900     45.964    111.213      0.247    108.034    111.213    108.034    223.433    216.068     35.605     12.099  -2421.305     55.636 
  2667.800      6.029      3.804    126.501     33.588    217.971    215.900     45.819    109.779      0.249    108.192    109.779    108.192    224.368    216.385     35.597     12.096  -2421.476     55.632 
  2668.000      5.887      4.654    128.288     33.598    219.675    215.900     44.879    111.483      0.249    108.192    111.483    108.192    224.920    216.385     35.589     12.093  -2421.647     55.637 
  2668.200      4.868      5.919    133.914     33.598    228.811    215.900     43.690    120.777      0.248    108.034    120.777    108.034    224.884    216.068     35.582     12.091  -2421.817     55.649 
  2668.400      3.102      7.567    141.662     33.408    222.453    215.900     42.667    114.789      0.244    107.665    114.789    107.665    224.336    215.329     35.574     12.088  -2421.988     55.653 
  2668.600      2.718      7.769    144.566     33.393    217.202    215.900     41.793    109.168      0.244    108.034    109.168    108.034    223.304    216.068     35.566     12.085  -2422.159     55.655 
  2668.800      2.490      7.576    143.573     33.313    217.137    215.900     40.825    109.168      0.245    107.969    109.168    107.969    221.865    215.939     35.559     12.082  -2422.329     55.670 
  2669.000      2.380      6.890    145.717     33.229    217.369    215.900     39.695    109.168      0.249    108.201    109.168    108.201    220.554    216.402     35.551     12.080  -2422.500     55.672 
  2669.200      2.321      6.299    149.385     33.188    217.360    215.900     38.606    109.168      0.245    108.192    109.168    108.192    219.712    216.385     35.544     12.078  -2422.671     55.668 
  2669.400      2.390      6.543    153.357     32.983    217.519    215.900     37.788    109.168      0.249    108.350    109.168    108.350    219.303    216.701     35.536     12.075  -2422.841     55.675 
  2669.600      2.763      7.036    156.079     32.983    217.890    215.900     37.259    109.191      0.249    108.699    109.191    108.699    219.290    217.398     35.529     12.073  -2423.012     55.683 
  2669.800      3.794      7.282    151.452     32.983    219.495    215.900     36.878    109.932      0.244    109.563    109.932    109.563    219.648    219.127     35.521     12.070  -2423.183     55.679 
  2670.000      5.529      7.418    143.693     33.171    218.911    215.900     36.547    109.168      0.244    109.743    109.168    109.743    220.183    219.486     35.514     12.068  -2423.353     55.686 
  2670.200      7.930      6.880    140.253     33.316    219.904    215.900     36.303    109.586      0.249    110.318    109.586    110.318    220.521    220.636     35.506     12.065  -2423.523     55.699 
  2670.400      8.895      6.478    143.258     33.508    223.534    215.900     36.207    115.070      0.249    108.464    115.070    108.464    220.667    216.929     35.499     12.062  -2423.693     55.701 
  2670.600      9.592      5.862    148.117     33.598    218.234    215.900     36.210    109.093      0.248    109.141    109.093    109.141    220.623    218.282     35.491     12.060  -2423.862     55.703 
  2670.800      9.206      5.704    151.832     33.598    218.774    215.900     36.149    109.633      0.249    109.141    109.633    109.141    220.365    218.282     35.483     12.057  -2424.032     55.718 
  2671.000      7.674      6.032    155.351     33.598    218.309    215.900     35.879    110.038      0.244    108.271    110.038    108.271    219.992    216.543     35.476     12.054  -2424.202     55.722 
  2671.200      6.541      6.309    158.065     33.598    218.074    215.900     35.347    109.837      0.244    108.237    109.837    108.237    219.972    216.475     35.468     12.052  -2424.372     55.724 
  2671.400      6.268      5.797    160.610     33.598    217.253    215.900     34.593    109.140      0.249    108.113    109.140    108.113    220.355    216.226     35.461     12.049  -2424.541     55.735 
  2671.600      6.552      4.764    165.112     33.408    217.229    215.900     33.710    109.140      0.249    108.089    109.140    108.089    221.185    216.179     35.453     12.047  -2424.711     55.745 
  2671.800      5.997      4.159    166.125     33.393    216.555    215.900     32.857    108.521      0.245    108.034    108.521    108.034    222.469    216.068     35.446     12.045  -2424.881     55.741 
  2672.000      6.084      5.037    166.980     33.352    218.096    215.900     32.269    110.178      0.244    107.918    110.178    107.918    223.919    215.836     35.439     12.042  -2425.051     55.750 
  2672.200      6.339      6.310    169.221     33.052    224.782    215.900     32.136    116.117      0.241    108.665    116.117    108.665    224.891    217.330     35.431     12.040  -2425.220     55.759 
  2672.400      5.973      8.140    171.464     32.969    227.803    215.900     32.528    120.640      0.239    107.164    120.640    107.164    225.223    214.328     35.423     12.037  -2425.390     55.758 
  2672.600      5.327      8.626    164.672     32.983    218.873    215.900     33.323    112.506      0.244    106.367    112.506    106.367    224.883    212.735     35.415     12.034  -2425.560     55.759 
  2672.800      5.299      8.272    151.451     33.279    215.398    215.900     34.366    109.216      0.244    106.181    109.216    106.181    223.862    212.363     35.408     12.031  -2425.730     55.772 
  2673.000      4.982      7.033    140.556     33.762    216.274    215.900     35.484    110.187      0.244    106.088    110.187    106.088    222.588    212.175     35.400     12.029  -2425.899     55.769 
  2673.200      5.489      5.678    136.476     34.455    216.915    215.900     36.554    110.341      0.244    106.574    110.341    106.574    221.617    213.147     35.393     12.026  -2426.069     55.768 
  2673.400      6.019      4.952    136.923     35.084    215.911    215.900     37.439    109.297      0.244    106.613    109.297    106.613    221.128    213.227     35.386     12.024  -2426.239     55.778 
  2673.600      6.485      4.475    137.505     35.784    215.775    215.900     38.070    109.043      0.245    106.732    109.043    106.732    221.160    213.464     35.378     12.022  -2426.408     55.786 
  2673.800      6.418      4.868    138.298     36.364    215.730    215.900     38.430    109.831      0.244    105.899    109.831    105.899    221.932    211.798     35.371     12.019  -2426.578     55.779 
  2674.000      5.898      5.533    140.860     36.969    215.268    215.900     38.551    109.413      0.249    105.855    109.413    105.855    223.189    211.711     35.364     12.017  -2426.748     55.788 
  2674.200      5.001      4.988    143.780     37.542    226.101    215.900     38.420    119.316      0.244    106.785    119.316    106.785    224.734    213.571     35.356     12.015  -2426.918     55.793 
