~Version Information
#-------------------
VERS.        2.0: CWLS log ASCII Standart - VERSION 2.0
WRAP.         NO: One line per depth step
~Well Information Block
#----------------------
#MNEM.UNIT  VALUE: DESCRIPTION
#----.---- -------: -------------
STRT.м                            3615: Начальная глубина
STOP.м                            3296: Конечная глубина
STEP.м                            -0.2: Шаг квантования
NULL.                        -9999.999: Код отсутствия
COMP.                  ООО LUKOIL-Komi: Название организации
WELL.                              134: Наименование скважины
FLD .                        Tedinskoe: Наименование площади
LOC .                                 : Расположение скважины
CTRY.                                 : Название страны
SRVC.                             PNGG: Наим.орг-ции, проводившей каротаж
DATE.                         12-08-08: Дата регистрации каротажных данных
UWI .                                 : Уникальный идентификатор скважины
~Parameter Information
#---------------------
#MNEM.UNIT  VALUE: DESCRIPTION
#----.---- -------: ---------------
~Curve Information Block
#-----------------------
#MNEM   .UNIT         : CURVE DESCRIPTION
#-------.----         : -----------------
DEPT    .м            : Колонка глубины
GK_spek .imp          : Гамма каротаж по СГК
K       .             : Содержание калия
U       .ppm          : Содержание урана
TH      .ppm          : Содержание тория
THU     .otn.ed       : Отношение TH/U
UK      .ppm          : Отношение U/K
THK     .ppm          : Отношение TH/K
АбсОтмкр.м            : Абс.отметки ПНГГ
qсгк    .             : Двойной разностной параметр по СГК
~Other Information
#-----------------
~Ascii Log Data
# ...
  3600.400    510.020      0.722      0.383      0.220      0.589      0.618      0.324  -3222.192      0.000 
  3600.200    567.502      0.753      0.625      0.146      0.304      0.834      0.274  -3222.017      0.001 
  3600.000    686.645      0.894      0.490      0.329      0.955      0.612      0.421  -3221.842      0.018 
  3599.800    687.691      0.929      0.429      0.293      1.036      0.527      0.353  -3221.664      0.018 
  3599.600    606.171      0.865      0.262      0.549      1.870      0.391      0.658  -3221.487      0.006 
  3599.400    636.479      0.777      0.196      0.549      1.860      0.318      0.719  -3221.310      0.011 
  3599.200    557.050      0.731      0.000      0.586      1.952      0.100      0.769  -3221.132      0.000 
  3599.000    605.126      0.710      0.064      0.366      1.220      0.154      0.516  -3220.955      0.006 
  3598.800    600.945      0.729      0.246      0.256      0.884      0.361      0.383  -3220.778      0.006 
  3598.600    566.456      0.752      0.404      0.220      0.667      0.541      0.327  -3220.601      0.001 
  3598.400    612.442      0.855      0.570      0.146      0.408      0.660      0.250  -3220.423      0.007 
  3598.200    645.886      0.935      0.447      0.425      1.349      0.489      0.535  -3220.246      0.012 
  3598.000    627.074      0.952      0.241      0.734      2.477      0.291      0.851  -3220.069      0.009 
  3597.800    567.502      0.847      0.141      0.829      2.649      0.260      0.950  -3219.891      0.001 
  3597.600    608.261      0.804      0.244      0.661      2.051      0.354      0.798  -3219.714      0.007 
  3597.400    603.035      0.798      0.216      0.717      2.277      0.313      0.881  -3219.537      0.006 
  3597.200    567.501      0.786      0.056      0.769      2.562      0.140      0.951  -3219.359      0.001 
  3597.000    605.126      0.743      0.099      0.586      1.919      0.208      0.755  -3219.182      0.006 
  3596.800    616.622      0.753      0.132      0.366      1.175      0.244      0.491  -3219.005      0.008 
  3596.600    642.750      0.705      0.350      0.476      1.083      0.713      0.788  -3218.828      0.012 
  3596.400    603.036      0.665      0.586      0.732      1.108      1.095      1.210  -3218.650      0.006 
  3596.200    643.796      0.642      0.586      0.878      1.518      1.034      1.388  -3218.473      0.012 
  3596.000    697.096      0.746      0.333      0.842      2.101      0.492      1.138  -3218.296      0.019 
  3595.800    751.443      0.714      0.520      0.622      1.788      0.880      0.856  -3218.118      0.027 
  3595.600    898.805      0.661      1.157      0.695      1.026      1.902      1.053  -3217.941      0.049 
  3595.400    951.061      0.573      1.607      0.878      0.531      2.820      1.549  -3217.764      0.056 
  3595.200    920.753      0.627      1.408      0.878      0.602      2.428      1.536  -3217.587      0.052 
  3595.000    796.383      0.724      0.959      0.550      0.529      1.549      0.924  -3217.409      0.034 
  3594.800    795.338      0.799      0.805      0.318      0.415      1.029      0.403  -3217.232      0.034 
  3594.600    799.519      0.657      1.109      0.440      0.397      2.143      0.900  -3217.055      0.034 
  3594.400    845.504      0.557      1.476      0.622      0.413      2.996      1.311  -3216.877      0.041 
  3594.200    847.594      0.500      1.646      0.512      0.348      3.474      1.101  -3216.700      0.041 
  3594.000    819.376      0.691      1.332      0.623      1.007      2.429      0.764  -3216.523      0.037 
  3593.800    886.264      0.804      0.924      0.758      1.449      1.582      0.808  -3216.345      0.047 
  3593.600    911.347      0.839      0.781      1.026      1.525      1.025      1.245  -3216.168      0.050 
  3593.400    924.933      0.682      1.103      1.282      1.125      1.699      2.006  -3215.991      0.052 
  3593.200    895.670      0.642      1.439      1.380      0.998      2.244      2.235  -3215.814      0.048 
  3593.000    849.685      0.693      1.435      0.916      0.640      2.112      1.510  -3215.636      0.041 
  3592.800    748.308      0.642      1.520      0.220      0.195      2.766      0.382  -3215.459      0.027 
  3592.600    837.143      0.530      1.866      0.110      0.112      4.078      0.307  -3215.282      0.040 
  3592.400    836.098      0.301      2.693      0.330      0.138      7.316      0.959  -3215.104      0.040 
  3592.200    829.827      0.139      3.454      0.559      0.160     10.594      1.733  -3214.927      0.039 
  3592.000    851.775      0.043      3.418      0.549      0.158     11.393      1.831  -3214.750      0.042 
  3591.800    767.120      0.057      3.533      0.548      0.152     11.776      1.828  -3214.573      0.030 
  3591.600    835.053      0.043      4.037      0.387      0.135     13.457      1.319  -3214.395      0.039 
  3591.400    799.518      0.000      4.594      0.439      0.143     15.313      1.504  -3214.218      0.034 
  3591.200    773.391      0.000      3.911      0.497      0.180     13.035      1.685  -3214.041      0.030 
  3591.000    706.503      0.000      3.064      0.601      0.198     10.214      2.003  -3213.863      0.021 
  3590.800    714.864      0.000      2.901      0.570      0.195      9.672      1.899  -3213.686      0.022 
  3590.600    721.135      0.000      3.214      0.716      0.217     10.715      2.387  -3213.509      0.023 
  3590.400    803.699      0.000      3.401      0.857      0.251     11.335      2.857  -3213.332      0.035 
  3590.200    756.669      0.000      3.664      0.606      0.209     12.213      2.051  -3213.154      0.028 
  3590.000    708.593      0.225      2.948      0.220      0.136      9.399      0.802  -3212.977      0.021 
  3589.800    708.593      0.526      1.591      0.110      0.436      4.763      0.216  -3212.802      0.021 
  3589.600    747.263      0.813      0.214      0.366      1.250      0.356      0.454  -3212.627      0.027 
  3589.400    781.752      0.817      0.209      0.403      1.372      0.372      0.482  -3212.452      0.032 
  3589.200    732.631      0.843      0.458      0.220      0.802      0.625      0.300  -3212.276      0.025 
  3589.000    785.932      0.903      0.657      0.000      0.100      0.752      0.100  -3212.101      0.032 
  3588.800    844.459      0.918      0.669      0.110      0.225      0.756      0.228  -3211.926      0.041 
  3588.600    864.316      0.906      0.597      0.256      0.551      0.704      0.349  -3211.751      0.044 
  3588.400    918.663      0.861      0.543      0.460      0.894      0.675      0.550  -3211.576      0.051 
  3588.200    834.008      0.847      0.640      0.491      0.858      0.806      0.593  -3211.401      0.039 
  3588.000    797.429      0.686      0.739      0.350      0.507      1.094      0.483  -3211.226      0.034 
  3587.800    803.699      0.625      0.512      0.220      0.524      0.873      0.354  -3211.051      0.035 
  3587.600    799.519      0.568      0.399      0.240      0.643      0.864      0.446  -3210.875      0.034 
  3587.400    855.955      0.567      0.513      0.235      0.562      1.041      0.460  -3210.700      0.042 
  3587.200    958.377      0.622      0.618      0.314      0.768      1.102      0.508  -3210.525      0.057 
  3587.000    994.956      0.792      0.400      0.681      2.128      0.583      0.792  -3210.350      0.062 
  3586.800   1013.769      0.867      0.548      0.847      2.414      0.674      0.948  -3210.175      0.065 
  3586.600    990.776      0.787      0.676      0.813      2.082      0.889      1.045  -3210.000      0.062 
  3586.400    888.354      0.799      0.547      0.810      2.083      0.781      1.056  -3209.825      0.047 
  3586.200   1012.724      0.820      0.201      0.996      3.066      0.348      1.257  -3209.650      0.065 
  3586.000    939.565      0.898      0.139      0.810      2.701      0.210      0.940  -3209.475      0.054 
