~Version Information
#-------------------
VERS.        2.0: CWLS log ASCII Standart - VERSION 2.0
WRAP.         NO: One line per depth step
~Well Information Block
#----------------------
#MNEM.UNIT  VALUE: DESCRIPTION
#----.---- -------: -------------
STRT.м                            3615: Начальная глубина
STOP.м                            3296: Конечная глубина
STEP.м                            -0.2: Шаг квантования
NULL.                        -9999.999: Код отсутствия
COMP.                  ООО LUKOIL-Komi: Название организации
WELL.                              134: Наименование скважины
FLD .                        Tedinskoe: Наименование площади
LOC .                                 : Расположение скважины
CTRY.                                 : Название страны
SRVC.                             PNGG: Наим.орг-ции, проводившей каротаж
DATE.                         12-08-08: Дата регистрации каротажных данных
UWI .                                 : Уникальный идентификатор скважины
~Parameter Information
#---------------------
#MNEM.UNIT  VALUE: DESCRIPTION
#----.---- -------: ---------------
~Curve Information Block
#-----------------------
#MNEM   .UNIT         : CURVE DESCRIPTION
#-------.----         : -----------------
DEPT    .м            : Колонка глубины
GK_spek .imp          : Гамма каротаж по СГК
K       .             : Содержание калия
U       .ppm          : Содержание урана
TH      .ppm          : Содержание тория
THU     .otn.ed       : Отношение TH/U
UK      .ppm          : Отношение U/K
THK     .ppm          : Отношение TH/K
АбсОтмкр.м            : Абс.отметки ПНГГ
qсгк    .             : Двойной разностной параметр по СГК
~Other Information
#-----------------
~Ascii Log Data
# ...
  3425.200   2877.224      1.932      2.030      2.578      1.241      1.132      1.288  -3071.342      0.334 
  3425.000   5402.236      2.809      3.169      4.367      1.434      1.131      1.577  -3071.168      0.699 
  3424.800   6379.427      3.343      3.891      5.863      1.511      1.208      1.798  -3070.995      0.840 
  3424.600   6432.726      3.696      3.407      6.397      2.003      0.962      1.790  -3070.821      0.847 
  3424.400   6229.976      3.931      3.008      6.011      2.107      0.795      1.591  -3070.647      0.818 
  3424.200   6272.825      4.114      3.186      5.214      1.772      0.792      1.301  -3070.473      0.824 
  3424.000   6595.767      3.990      3.850      5.157      1.342      0.998      1.337  -3070.300      0.871 
  3423.800   6544.556      3.957      3.473      6.165      2.092      0.919      1.596  -3070.126      0.864 
  3423.600   6352.253      3.792      3.466      6.162      2.243      0.982      1.638  -3069.952      0.836 
  3423.400   6177.716      3.857      3.676      5.678      1.933      1.018      1.483  -3069.779      0.811 
  3423.200   6201.755      3.510      4.387      4.270      0.989      1.334      1.226  -3069.605      0.814 
  3423.000   4585.996      3.009      3.351      3.475      1.345      1.120      1.157  -3069.431      0.581 
  3422.800   2808.245      2.152      2.020      2.319      1.781      0.880      1.163  -3069.258      0.324 
  3422.600   2353.617      1.667      0.996      2.134      2.163      0.664      1.405  -3069.084      0.259 
  3422.400   2300.316      1.706      0.890      2.328      3.073      0.620      1.491  -3068.910      0.251 
  3422.200   2392.286      1.768      0.555      3.314      7.873      0.398      2.160  -3068.737      0.264 
  3422.000   2359.887      1.670      0.648      3.219      8.672      0.512      2.164  -3068.563      0.260 
  3421.800   2016.042      1.309      0.996      2.263      5.643      0.892      1.766  -3068.389      0.210 
  3421.600   1380.608      1.174      0.943      0.816      0.900      0.866      0.745  -3068.216      0.118 
  3421.400    857.000      1.087      0.564      0.482      0.813      0.603      0.480  -3068.042      0.043 
  3421.200    696.052      1.007      0.483      0.187      0.498      0.578      0.224  -3067.868      0.019 
  3421.000    756.669      1.186      0.641      0.724      1.259      0.653      0.509  -3067.695      0.028 
  3420.800   1842.551      1.540      0.871      1.107      1.697      0.622      0.692  -3067.521      0.185 
  3420.600   2037.989      1.722      0.859      1.617      3.530      0.492      1.072  -3067.347      0.213 
  3420.400   1488.255      1.517      1.244      1.486      3.240      0.928      1.135  -3067.174      0.134 
  3420.200   1657.565      1.468      1.479      1.512      2.627      1.145      1.154  -3067.000      0.158 
  3420.000   2079.794      1.565      1.662      1.275      0.853      1.207      0.908  -3066.826      0.219 
  3419.800   1908.395      1.565      1.482      1.031      0.811      1.036      0.693  -3066.652      0.194 
  3419.600   1471.533      1.345      1.321      0.805      0.754      1.062      0.633  -3066.478      0.131 
  3419.400   1253.103      1.265      1.069      0.622      0.789      0.906      0.543  -3066.303      0.100 
  3419.200   1176.808      1.239      0.590      0.952      1.978      0.522      0.842  -3066.129      0.089 
  3419.000   1224.884      1.241      0.463      1.244      2.917      0.403      1.104  -3065.955      0.096 
  3418.800   1301.178      1.187      0.298      1.354      3.546      0.298      1.242  -3065.781      0.107 
  3418.600   1095.289      1.179      0.142      1.266      3.684      0.198      1.169  -3065.607      0.077 
  3418.400    824.602      1.183      0.177      0.956      3.006      0.231      0.884  -3065.432      0.038 
  3418.200   1032.581      1.252      0.515      0.754      1.776      0.465      0.655  -3065.258      0.068 
  3418.000   1028.401      1.287      0.796      0.622      0.768      0.665      0.519  -3065.084      0.067 
  3417.800   1028.400      1.359      0.729      0.900      1.558      0.589      0.707  -3064.910      0.067 
  3417.600   1151.726      1.451      0.408      1.176      3.018      0.358      0.856  -3064.735      0.085 
  3417.400   1253.102      1.456      0.595      1.141      3.024      0.545      0.819  -3064.561      0.100 
  3417.200   1189.350      1.353      0.917      0.773      1.722      0.834      0.583  -3064.387      0.091 
  3417.000   1194.576      1.256      1.104      0.424      0.392      0.959      0.368  -3064.213      0.091 
  3416.800   1091.109      1.177      0.796      0.366      0.476      0.737      0.347  -3064.039      0.076 
  3416.600   1041.987      1.231      0.522      0.586      1.476      0.517      0.492  -3063.864      0.069 
  3416.400   1077.522      1.227      0.267      1.208      3.845      0.290      1.107  -3063.690      0.074 
  3416.200   1292.817      1.135      0.273      1.537      4.570      0.343      1.592  -3063.516      0.105 
  3416.000   1206.072      1.068      0.317      1.654      4.773      0.414      1.719  -3063.342      0.093 
  3415.800   1081.702      1.091      0.474      1.290      3.279      0.585      1.289  -3063.167      0.075 
  3415.600   1078.567      1.235      0.453      1.236      3.498      0.482      1.058  -3062.993      0.075 
  3415.400   1187.260      1.233      0.614      0.846      2.121      0.596      0.739  -3062.819      0.090 
  3415.200   1076.476      1.209      0.667      0.644      1.602      0.650      0.549  -3062.645      0.074 
  3415.000    904.031      1.105      0.648      0.366      0.676      0.673      0.371  -3062.471      0.049 
  3414.800    733.676      1.047      0.587      0.366      0.754      0.665      0.392  -3062.296      0.025 
  3414.600    823.556      1.049      0.544      0.476      0.998      0.603      0.508  -3062.122      0.038 
  3414.400   1178.899      1.057      0.810      0.461      0.787      0.832      0.497  -3061.948      0.089 
  3414.200   1013.769      1.072      0.710      0.407      0.884      0.691      0.437  -3061.774      0.065 
  3414.000    699.187      0.969      0.466      0.314      0.901      0.480      0.390  -3061.599      0.020 
  3413.800    621.848      0.861      0.179      0.256      0.884      0.259      0.379  -3061.425      0.009 
  3413.600    581.088      0.843      0.354      0.110      0.436      0.492      0.236  -3061.251      0.003 
  3413.400    709.638      0.881      0.673      0.110      0.186      0.862      0.206  -3061.077      0.021 
  3413.200    692.916      0.929      0.628      0.366      0.917      0.791      0.445  -3060.903      0.019 
  3413.000    918.662      0.933      0.846      0.461      1.126      1.117      0.529  -3060.728      0.051 
  3412.800    959.422      0.944      0.758      0.627      1.876      1.031      0.701  -3060.554      0.057 
  3412.600    845.504      0.992      0.858      0.556      1.557      1.054      0.616  -3060.380      0.041 
  3412.400    901.941      1.023      0.466      0.627      1.909      0.467      0.714  -3060.206      0.049 
  3412.200   1002.272      0.965      0.554      0.461      1.190      0.607      0.566  -3060.031      0.064 
  3412.000   1177.854      0.970      0.635      0.586      1.146      0.699      0.673  -3059.857      0.089 
  3411.800   1345.073      1.081      0.993      0.622      0.616      1.002      0.622  -3059.683      0.113 
  3411.600   1522.745      1.238      1.083      0.952      0.910      0.968      0.817  -3059.509      0.139 
  3411.400   1565.594      1.338      1.206      1.025      0.935      0.982      0.818  -3059.335      0.145 
  3411.200   1702.505      1.482      0.906      1.391      2.842      0.726      0.981  -3059.160      0.165 
  3411.000   1622.031      1.563      0.696      1.486      3.570      0.553      0.990  -3058.986      0.153 
  3410.800   1742.220      1.569      0.310      1.673      4.521      0.267      1.139  -3058.812      0.170 
