~Version Information
#-------------------
VERS.        2.0: CWLS log ASCII Standart - VERSION 2.0
WRAP.         NO: One line per depth step
~Well Information Block
#----------------------
#MNEM.UNIT  VALUE: DESCRIPTION
#----.---- -------: -------------
STRT.м                          2167.4: Начальная глубина
STOP.м                            3615: Конечная глубина
STEP.м                             0.2: Шаг квантования
NULL.                         -9999.99: Код отсутствия
COMP.                  ООО LUKOIL-Komi: Название организации
WELL.                              134: Наименование скважины
FLD .                        Tedinskoe: Наименование площади
LOC .                                 : Расположение скважины
CTRY.                                 : Название страны
SRVC.                             PNGG: Наим.орг-ции, проводившей каротаж
DATE.                        10.08.08 : Дата регистрации каротажных данных
UWI .                                 : Уникальный идентификатор скважины
~Parameter Information
#---------------------
#MNEM.UNIT  VALUE: DESCRIPTION
#----.---- -------: ---------------
BS  .м      0.22: Диаметр долота
~Curve Information Block
#-----------------------
#MNEM   .UNIT          : CURVE DESCRIPTION
#-------.----          : -----------------
DEPT    .m             : Колонка глубины
GR      .ur/hr         : Гамма каротаж
IK      .msm/m         : Индукционный каротаж аппаратурой АИК-5 (активная составляющая)
GZ4     .Omm           : Градиент-зонд  длиной 4.5м
PZ      .Omm           : Потенциал-зонд A0.5M6.5N
DS      .mm            : Каверномер
BS      .mm            : Номинальный диаметр 215.9мм
PS      .mV            : Потенциал самополяризации
RRA1    .mm            : Радиус1
RRB_1   .Omm           : Резистивиметр
RRA2    .mm            : Радиус2
RRA3    .mm            : Радиус3
RRA4    .mm            : Радиус4
C1      .mm            : Профиль1
C2      .mm            : Профиль2
PEF     .m3            : Суммарный объем скважины
PEF     .m3            : Объем затрубья
АбсОтмкр.m             : Абсолютные отметки ПНГГ
TEMP    .grad          : Температура
~Other Information
#-----------------
tool=СРК
mode=ННКт
id=59
tool=АИК-5
mode=Основной
id=42
tool=ЭК-1
mode=БК
id=5
tool=ЭК-1
mode=БКЗ
id=5
tool=ИНС-60
mode=Основной
id=260


~Ascii Log Data
# ...
  2760.200      6.718     14.218     39.455     25.284    215.367    215.900     53.270    107.592      0.239    107.775    107.592    107.775    215.354    215.550     32.155     10.953  -2499.739     56.945 
  2760.400      8.036     14.808     42.056     25.403    215.104    215.900     52.990    107.592      0.239    107.512    107.592    107.512    215.464    215.024     32.148     10.951  -2499.908     56.936 
  2760.600      9.870     16.063     44.391     25.403    215.147    215.900     52.080    107.872      0.236    107.276    107.872    107.276    215.524    214.552     32.140     10.949  -2500.078     56.931 
  2760.800      9.388     17.381     46.542     25.116    215.971    215.900     50.890    108.057      0.239    107.914    108.057    107.914    215.539    215.829     32.133     10.946  -2500.248     56.922 
  2761.000      8.250     18.654     48.324     24.654    215.296    215.900     49.952    107.627      0.242    107.670    107.627    107.670    215.542    215.340     32.126     10.944  -2500.418     56.923 
  2761.200      7.952     20.139     49.657     23.969    215.304    215.900     49.640    107.634      0.237    107.670    107.634    107.670    215.604    215.340     32.119     10.942  -2500.587     56.928 
  2761.400      8.516     23.010     52.279     23.190    214.663    215.900     49.939    107.705      0.239    106.959    107.705    106.959    215.700    213.917     32.111     10.939  -2500.757     56.932 
  2761.600      9.254     26.883     55.962     22.381    214.647    215.900     50.498    107.689      0.239    106.959    107.689    106.959    215.840    213.917     32.104     10.937  -2500.927     56.934 
  2761.800      7.810     31.097     58.900     21.471    215.045    215.900     50.977    108.126      0.239    106.919    108.126    106.919    216.006    213.838     32.097     10.935  -2501.097     56.936 
  2762.000      4.999     34.276     61.390     20.602    215.086    215.900     51.241    108.207      0.239    106.879    108.207    106.879    216.183    213.759     32.090     10.933  -2501.267     56.928 
  2762.200      3.599     36.910     64.170     19.648    215.359    215.900     51.331    108.261      0.236    107.099    108.261    107.099    216.353    214.197     32.082     10.930  -2501.437     56.919 
  2762.400      3.082     38.489     68.340     18.677    215.139    215.900     51.293    108.112      0.241    107.027    108.112    107.027    216.463    214.054     32.075     10.928  -2501.606     56.912 
  2762.600      3.214     40.200     73.810     17.772    215.816    215.900     51.115    108.645      0.241    107.172    108.645    107.172    216.497    214.343     32.068     10.926  -2501.776     56.905 
  2762.800      3.460     41.579     79.367     16.873    215.131    215.900     50.812    108.335      0.241    106.796    108.335    106.796    216.463    213.592     32.060     10.923  -2501.946     56.899 
  2763.000      3.078     43.874     83.840     16.189    215.362    215.900     50.450    108.270      0.243    107.093    108.270    107.093    216.363    214.185     32.053     10.921  -2502.116     56.903 
  2763.200      2.978     46.360     82.987     15.453    215.575    215.900     50.115    108.483      0.244    107.093    108.483    107.093    216.214    214.185     32.046     10.919  -2502.286     56.897 
  2763.400      2.822     48.154     79.452     14.966    214.491    215.900     49.836    107.767      0.244    106.724    107.767    106.724    216.076    213.448     32.039     10.916  -2502.455     56.897 
  2763.600      3.119     48.912     77.938     14.619    214.148    215.900     49.634    107.331      0.241    106.817    107.331    106.817    215.968    213.634     32.031     10.914  -2502.625     56.897 
  2763.800      3.519     49.051     78.047     14.280    214.871    215.900     49.598    107.778      0.242    107.093    107.778    107.093    215.885    214.185     32.024     10.912  -2502.795     56.898 
  2764.000      3.712     49.798     78.353     13.931    215.381    215.900     49.801    108.288      0.238    107.093    108.288    107.093    215.800    214.185     32.017     10.910  -2502.965     56.886 
  2764.200      3.487     51.997     77.038     13.698    215.514    215.900     50.249    108.422      0.239    107.093    108.422    107.093    215.699    214.185     32.010     10.907  -2503.135     56.884 
  2764.400      2.987     55.260     73.696     13.430    213.954    215.900     50.783    107.686      0.243    106.268    107.686    106.268    215.532    212.536     32.002     10.905  -2503.305     56.878 
  2764.600      3.092     58.338     70.184     13.162    214.647    215.900     51.271    107.555      0.240    107.093    107.555    107.093    215.273    214.185     31.995     10.903  -2503.474     56.868 
  2764.800      3.106     61.033     68.595     12.872    214.671    215.900     51.603    107.579      0.243    107.093    107.579    107.093    214.900    214.185     31.988     10.901  -2503.644     56.860 
  2765.000      3.342     64.159     68.338     12.436    215.143    215.900     51.757    108.059      0.242    107.084    108.059    107.084    214.477    214.167     31.981     10.898  -2503.814     56.866 
  2765.200      3.477     67.367     67.742     11.780    212.944    215.900     51.696    106.246      0.236    106.697    106.246    106.697    214.008    213.394     31.973     10.896  -2503.984     56.868 
  2765.400      2.980     72.879     67.384     11.053    213.587    215.900     51.424    107.127      0.235    106.460    107.127    106.460    213.534    212.920     31.966     10.894  -2504.153     56.869 
  2765.600      2.675     81.707     66.064     10.213    212.771    215.900     51.002    106.130      0.239    106.640    106.130    106.640    213.114    213.280     31.959     10.892  -2504.323     56.874 
  2765.800      2.717     96.208     63.243      9.168    213.171    215.900     50.543    106.130      0.239    107.041    106.130    107.041    212.800    214.081     31.952     10.890  -2504.493     56.874 
  2766.000      2.834    110.908     56.477      8.655    213.223    215.900     50.103    106.130      0.240    107.093    106.130    107.093    212.658    214.185     31.945     10.887  -2504.663     56.862 
  2766.200      2.773    110.124     44.687      8.539    213.260    215.900     49.603    106.074      0.230    107.186    106.074    107.186    212.739    214.372     31.938     10.885  -2504.833     56.855 
  2766.400      3.201     91.528     31.409      8.903    213.846    215.900     48.925    106.271      0.232    107.575    106.271    107.575    213.080    215.149     31.930     10.883  -2505.003     56.848 
  2766.600      3.997     62.210     23.890      9.783    213.286    215.900     48.147    105.699      0.239    107.587    105.699    107.587    213.746    215.174     31.923     10.881  -2505.172     56.838 
  2766.800      4.940     40.910     21.470     11.421    213.783    215.900     47.616    106.983      0.239    106.800    106.983    106.800    214.820    213.601     31.916     10.879  -2505.342     56.834 
  2767.000      5.802     30.814     20.873     13.423    212.810    215.900     47.649    105.851      0.232    106.959    105.851    106.959    216.052    213.917     31.909     10.877  -2505.512     56.840 
  2767.200      7.616     24.943     20.352     15.388    218.671    215.900     48.219    111.975      0.244    106.696    111.975    106.696    217.372    213.391     31.902     10.874  -2505.682     56.842 
  2767.400      9.699     19.843     20.496     17.645    214.428    215.900     48.935    108.357      0.239    106.071    108.357    106.071    218.679    212.143     31.894     10.872  -2505.852     56.844 
  2767.600     11.334     15.119     20.709     19.934    215.223    215.900     49.445    108.570      0.239    106.653    108.570    106.653    219.699    213.305     31.887     10.870  -2506.021     56.853 
  2767.800     12.051     15.024     21.580     21.965    223.280    215.900     49.655    114.182      0.234    109.098    114.182    109.098    220.100    218.195     31.880     10.867  -2506.191     56.855 
