~Version Information
#-------------------
VERS.        2.0: CWLS log ASCII Standart - VERSION 2.0
WRAP.         NO: One line per depth step
~Well Information Block
#----------------------
#MNEM.UNIT  VALUE: DESCRIPTION
#----.---- -------: -------------
STRT.м                          2167.4: Начальная глубина
STOP.м                            3615: Конечная глубина
STEP.м                             0.2: Шаг квантования
NULL.                         -9999.99: Код отсутствия
COMP.                  ООО LUKOIL-Komi: Название организации
WELL.                              134: Наименование скважины
FLD .                        Tedinskoe: Наименование площади
LOC .                                 : Расположение скважины
CTRY.                                 : Название страны
SRVC.                             PNGG: Наим.орг-ции, проводившей каротаж
DATE.                        10.08.08 : Дата регистрации каротажных данных
UWI .                                 : Уникальный идентификатор скважины
~Parameter Information
#---------------------
#MNEM.UNIT  VALUE: DESCRIPTION
#----.---- -------: ---------------
BS  .м      0.22: Диаметр долота
~Curve Information Block
#-----------------------
#MNEM   .UNIT          : CURVE DESCRIPTION
#-------.----          : -----------------
DEPT    .m             : Колонка глубины
GR      .ur/hr         : Гамма каротаж
IK      .msm/m         : Индукционный каротаж аппаратурой АИК-5 (активная составляющая)
GZ4     .Omm           : Градиент-зонд  длиной 4.5м
PZ      .Omm           : Потенциал-зонд A0.5M6.5N
DS      .mm            : Каверномер
BS      .mm            : Номинальный диаметр 215.9мм
PS      .mV            : Потенциал самополяризации
RRA1    .mm            : Радиус1
RRB_1   .Omm           : Резистивиметр
RRA2    .mm            : Радиус2
RRA3    .mm            : Радиус3
RRA4    .mm            : Радиус4
C1      .mm            : Профиль1
C2      .mm            : Профиль2
PEF     .m3            : Суммарный объем скважины
PEF     .m3            : Объем затрубья
АбсОтмкр.m             : Абсолютные отметки ПНГГ
TEMP    .grad          : Температура
~Other Information
#-----------------
tool=СРК
mode=ННКт
id=59
tool=АИК-5
mode=Основной
id=42
tool=ЭК-1
mode=БК
id=5
tool=ЭК-1
mode=БКЗ
id=5
tool=ИНС-60
mode=Основной
id=260


~Ascii Log Data
# ...
  3610.400      1.217     20.075  -9999.990  -9999.990    219.755    215.900  -9999.990    113.554  -9999.990    106.201    113.554    106.201    225.150    212.403      0.064      0.019  -9999.990     72.533 
  3610.600      1.180     23.352  -9999.990  -9999.990    220.713    215.900  -9999.990    116.127  -9999.990    104.586    116.127    104.586    226.617    209.172      0.056      0.016  -9999.990     72.589 
  3610.800      1.213     26.225  -9999.990  -9999.990    222.233    215.900  -9999.990    118.813  -9999.990    103.420    118.813    103.420    226.838    206.841      0.049      0.014  -9999.990     72.649 
  3611.000      1.344     26.697  -9999.990  -9999.990    216.641    215.900  -9999.990    115.024  -9999.990    101.616    115.024    101.616    225.135    203.232      0.041      0.011  -9999.990     72.715 
  3611.200      1.340     26.679  -9999.990  -9999.990    221.573    215.900  -9999.990    119.602  -9999.990    101.971    119.602    101.971    221.556    203.941      0.033      0.009  -9999.990     72.784 
  3611.400      1.338     26.758  -9999.990  -9999.990    208.884    215.900  -9999.990    106.865  -9999.990    102.018    106.865    102.018    216.401    204.036      0.026      0.006  -9999.990     72.864 
  3611.600      1.262     26.754  -9999.990  -9999.990    205.123    215.900  -9999.990    103.968  -9999.990    101.155    103.968    101.155    210.408    202.309      0.019      0.004  -9999.990     72.961 
  3611.800      1.156     26.734  -9999.990  -9999.990    197.683    215.900  -9999.990     98.605  -9999.990     99.078     98.605     99.078    204.165    198.156      0.012      0.002  -9999.990     72.961 
  3612.000      1.260     26.658  -9999.990  -9999.990    196.672  -9999.990  -9999.990     97.849  -9999.990     98.823     97.849     98.823    198.459    197.646      0.006      0.001  -9999.990     72.961 
  3612.200      1.115     26.725  -9999.990  -9999.990    195.909  -9999.990  -9999.990     96.353  -9999.990     99.557     96.353     99.557    193.558    199.113  -9999.990  -9999.990  -9999.990     72.961 
  3612.400      1.134     26.729  -9999.990  -9999.990    193.109  -9999.990  -9999.990     93.720  -9999.990     99.388     93.720     99.388    189.684    198.777  -9999.990  -9999.990  -9999.990     72.961 
  3612.600      1.249     26.725  -9999.990  -9999.990    189.432  -9999.990  -9999.990     90.992  -9999.990     98.440     90.992     98.440    186.756    196.880  -9999.990  -9999.990  -9999.990     72.961 
  3612.800      1.027     26.694  -9999.990  -9999.990    189.432  -9999.990  -9999.990     90.992  -9999.990     98.440     90.992     98.440    184.720    196.880  -9999.990  -9999.990  -9999.990  -9999.990 
  3613.000      1.115     26.722  -9999.990  -9999.990    189.432  -9999.990  -9999.990     90.992  -9999.990     98.440     90.992     98.440    183.374    196.880  -9999.990  -9999.990  -9999.990  -9999.990 
  3613.200      1.287     26.788  -9999.990  -9999.990    189.353  -9999.990  -9999.990     90.992  -9999.990     98.361     90.992     98.361    182.596    196.722  -9999.990  -9999.990  -9999.990  -9999.990 
  3613.400      1.255     26.703  -9999.990  -9999.990    189.340  -9999.990  -9999.990     90.947  -9999.990     98.393     90.947     98.393    182.180    196.785  -9999.990  -9999.990  -9999.990  -9999.990 
  3613.600      1.114     26.698  -9999.990  -9999.990    189.353  -9999.990  -9999.990     90.992  -9999.990     98.361     90.992     98.361    182.004    196.722  -9999.990  -9999.990  -9999.990  -9999.990 
  3613.800      1.210     26.641  -9999.990  -9999.990    189.353  -9999.990  -9999.990     90.992  -9999.990     98.361     90.992     98.361    181.957    196.722  -9999.990  -9999.990  -9999.990  -9999.990 
  3614.000      1.323     26.683  -9999.990  -9999.990    189.353  -9999.990  -9999.990     90.992  -9999.990     98.361     90.992     98.361    181.957    196.722  -9999.990  -9999.990  -9999.990  -9999.990 
  3614.200      1.539     26.672  -9999.990  -9999.990    189.291  -9999.990  -9999.990     90.930  -9999.990     98.361     90.930     98.361    181.957    196.722  -9999.990  -9999.990  -9999.990  -9999.990 
  3614.400      1.468     26.740  -9999.990  -9999.990    189.353  -9999.990  -9999.990     90.992  -9999.990     98.361     90.992     98.361    181.957    196.722  -9999.990  -9999.990  -9999.990  -9999.990 
  3614.600      1.337     26.751  -9999.990  -9999.990    189.353  -9999.990  -9999.990     90.992  -9999.990     98.361     90.992     98.361    181.957    196.722  -9999.990  -9999.990  -9999.990  -9999.990 
  3614.800      1.313     26.711  -9999.990  -9999.990    189.353  -9999.990  -9999.990     90.992  -9999.990     98.361     90.992     98.361    181.957    196.722  -9999.990  -9999.990  -9999.990     73.480 
  3615.000      1.271     26.688  -9999.990  -9999.990    189.353  -9999.990  -9999.990     90.992  -9999.990     98.361     90.992     98.361    181.957    196.722  -9999.990  -9999.990  -9999.990     73.480 
