~Version Information
#-------------------
VERS.        2.0: CWLS log ASCII Standart - VERSION 2.0
WRAP.         NO: One line per depth step
~Well Information Block
#----------------------
#MNEM.UNIT  VALUE: DESCRIPTION
#----.---- -------: -------------
STRT.м                          2167.4: Начальная глубина
STOP.м                            3615: Конечная глубина
STEP.м                             0.2: Шаг квантования
NULL.                         -9999.99: Код отсутствия
COMP.                  ООО LUKOIL-Komi: Название организации
WELL.                              134: Наименование скважины
FLD .                        Tedinskoe: Наименование площади
LOC .                                 : Расположение скважины
CTRY.                                 : Название страны
SRVC.                             PNGG: Наим.орг-ции, проводившей каротаж
DATE.                        10.08.08 : Дата регистрации каротажных данных
UWI .                                 : Уникальный идентификатор скважины
~Parameter Information
#---------------------
#MNEM.UNIT  VALUE: DESCRIPTION
#----.---- -------: ---------------
BS  .м      0.22: Диаметр долота
~Curve Information Block
#-----------------------
#MNEM   .UNIT          : CURVE DESCRIPTION
#-------.----          : -----------------
DEPT    .m             : Колонка глубины
GR      .ur/hr         : Гамма каротаж
IK      .msm/m         : Индукционный каротаж аппаратурой АИК-5 (активная составляющая)
GZ4     .Omm           : Градиент-зонд  длиной 4.5м
PZ      .Omm           : Потенциал-зонд A0.5M6.5N
DS      .mm            : Каверномер
BS      .mm            : Номинальный диаметр 215.9мм
PS      .mV            : Потенциал самополяризации
RRA1    .mm            : Радиус1
RRB_1   .Omm           : Резистивиметр
RRA2    .mm            : Радиус2
RRA3    .mm            : Радиус3
RRA4    .mm            : Радиус4
C1      .mm            : Профиль1
C2      .mm            : Профиль2
PEF     .m3            : Суммарный объем скважины
PEF     .m3            : Объем затрубья
АбсОтмкр.m             : Абсолютные отметки ПНГГ
TEMP    .grad          : Температура
~Other Information
#-----------------
tool=СРК
mode=ННКт
id=59
tool=АИК-5
mode=Основной
id=42
tool=ЭК-1
mode=БК
id=5
tool=ЭК-1
mode=БКЗ
id=5
tool=ИНС-60
mode=Основной
id=260


~Ascii Log Data
# ...
  3142.400      1.643     19.229    100.891     25.526    210.618    215.900   -124.036    105.993      0.225    104.625    105.993    104.625    212.719    209.250     17.963      6.272  -2823.022     60.190 
  3142.600      1.805     19.595     98.348     25.701    211.776    215.900   -122.118    106.073      0.224    105.703    106.073    105.703    211.631    211.406     17.956      6.270  -2823.196     60.183 
  3142.800      1.790     20.292     95.670     25.834    212.380    215.900   -120.180    105.999      0.219    106.381    105.999    106.381    210.436    212.762     17.949      6.268  -2823.371     60.184 
  3143.000      1.665     20.097     94.005     26.115    211.937    215.900   -118.374    105.064      0.219    106.873    105.064    106.873    209.135    213.745     17.942      6.266  -2823.545     60.184 
  3143.200      1.646     19.556     93.151     26.223    212.017    215.900   -116.839    104.214      0.219    107.803    104.214    107.803    207.757    215.606     17.935      6.264  -2823.719     60.192 
  3143.400      1.682     18.559     93.747     26.330    210.849    215.900   -115.694    102.676      0.219    108.173    102.676    108.173    206.413    216.346     17.928      6.262  -2823.893     60.185 
  3143.600      1.864     18.369     95.336     26.428    210.260    215.900   -114.921    101.525      0.219    108.735    101.525    108.735    205.227    217.470     17.921      6.260  -2824.067     60.186 
  3143.800      1.904     18.500     96.460     26.428    210.884    215.900   -114.269    101.367      0.219    109.517    101.367    109.517    204.315    219.034     17.914      6.258  -2824.241     60.187 
  3144.000      1.921     18.942     97.122     26.428    210.346    215.900   -113.315    101.161      0.219    109.186    101.161    109.186    203.725    218.371     17.907      6.256  -2824.416     60.192 
  3144.200      1.804     20.028     97.519     26.605    210.676    215.900   -111.767    102.029      0.219    108.646    102.029    108.646    203.481    217.293     17.900      6.254  -2824.590     60.181 
  3144.400      1.837     20.479     94.826     26.800    209.712    215.900   -109.635    101.201      0.219    108.511    101.201    108.511    203.561    217.022     17.893      6.252  -2824.764     60.186 
  3144.600      1.807     21.108     90.345     27.268    210.645    215.900   -107.184    101.526      0.219    109.119    101.526    109.119    204.152    218.239     17.886      6.250  -2824.938     60.190 
  3144.800      1.940     19.873     87.791     27.804    210.349    215.900   -104.625    101.355      0.219    108.994    101.355    108.994    205.426    217.989     17.879      6.248  -2825.112     60.185 
  3145.000      2.100     17.877     87.395     28.569    212.497    215.900   -102.042    102.980      0.219    109.516    102.980    109.516    207.541    219.032     17.872      6.246  -2825.287     60.178 
  3145.200      2.056     13.673     87.990     29.313    213.363    215.900    -99.456    103.135      0.219    110.227    103.135    110.227    210.595    220.455     17.865      6.244  -2825.461     60.184 
  3145.400      2.049      9.144     87.354     30.218    213.598    215.900    -96.965    103.213      0.219    110.385    103.213    110.385    214.463    220.771     17.858      6.242  -2825.635     60.183 
  3145.600      2.345      6.478     86.054     31.068    215.057    215.900    -94.684    104.672      0.219    110.385    104.672    110.385    218.388    220.771     17.851      6.239  -2825.809     60.174 
  3145.800      2.736      6.471     85.542     31.754    229.372    215.900    -92.637    117.661      0.229    111.711    117.661    111.711    221.528    223.422     17.843      6.237  -2825.983     60.169 
  3146.000      3.204      9.759     88.898     32.164    233.612    215.900    -90.724    121.211      0.219    112.401    121.211    112.401    223.213    224.802     17.835      6.234  -2826.158     60.159 
  3146.200      3.600     12.205     95.814     32.369    229.104    215.900    -88.792    117.431      0.219    111.672    117.431    111.672    222.914    223.345     17.826      6.230  -2826.332     60.151 
  3146.400      4.368     13.312    103.795     32.369    225.696    215.900    -86.747    114.866      0.229    110.830    114.866    110.830    220.749    221.661     17.818      6.227  -2826.506     60.136 
  3146.600      5.409     12.709    109.635     32.164    213.624    215.900    -84.543    103.093      0.229    110.531    103.093    110.531    217.450    221.062     17.810      6.224  -2826.680     60.127 
  3146.800      6.462     12.367    112.307     32.164    213.033    215.900    -82.138    103.093      0.229    109.941    103.093    109.941    213.894    219.881     17.803      6.222  -2826.854     60.117 
  3147.000      6.293     12.447    114.471     32.127    213.033    215.900    -79.449    103.093      0.229    109.941    103.093    109.941    210.917    219.881     17.796      6.220  -2827.029     60.117 
  3147.200      7.101     12.310    117.092     31.884    213.033    215.900    -76.485    103.093      0.229    109.941    103.093    109.941    209.351    219.881     17.789      6.217  -2827.203     60.103 
  3147.400      6.073     12.510    120.773     31.559    213.070    215.900    -73.427    103.093      0.229    109.977    103.093    109.977    209.463    219.954     17.782      6.215  -2827.377     60.098 
  3147.600      5.242     11.097    124.935     31.124    214.057    215.900    -70.581    104.188      0.229    109.869    104.188    109.869    211.306    219.738     17.774      6.213  -2827.551     60.092 
  3147.800      4.460      8.813    130.298     30.628    213.767    215.900    -68.104    103.389      0.229    110.378    103.389    110.378    214.723    220.756     17.767      6.211  -2827.725     60.087 
  3148.000      4.028      6.038    129.380     30.115    213.908    215.900    -65.869    103.451      0.228    110.457    103.451    110.457    219.173    220.914     17.760      6.209  -2827.900     60.066 
  3148.200      3.689      7.793    127.728     29.620    223.018    215.900    -63.550    112.356      0.229    110.661    112.356    110.661    223.758    221.323     17.753      6.206  -2828.074     60.059 
  3148.400      3.647     11.889    129.337     28.715    230.533    215.900    -60.886    119.868      0.229    110.665    119.868    110.665    227.524    221.330     17.745      6.204  -2828.248     60.052 
  3148.600      3.633     18.213    137.302     27.605    235.607    215.900    -57.866    124.645      0.229    110.963    124.645    110.963    229.603    221.925     17.737      6.200  -2828.422     60.038 
  3148.800      3.443     23.310    135.657     26.688    232.163    215.900    -54.701    121.921      0.219    110.242    121.921    110.242    229.595    220.485     17.728      6.197  -2828.596     60.024 
  3149.000      3.569     30.080    127.079     25.793    224.010    215.900    -51.698    112.422      0.226    111.588    112.422    111.588    227.630    223.176     17.720      6.193  -2828.770     60.022 
  3149.200      4.033     33.371    125.394     24.906    223.051    215.900    -49.122    111.401      0.229    111.651    111.401    111.651    224.257    223.301     17.712      6.190  -2828.945     60.014 
  3149.400      3.943     35.153    137.077     24.122    220.522    215.900    -47.112    109.118      0.229    111.404    109.118    111.404    220.444    222.808     17.704      6.187  -2829.119     60.000 
  3149.600      3.531     34.903    146.577     23.485    214.231    215.900    -45.618    104.816      0.229    109.415    104.816    109.415    217.061    218.830     17.696      6.185  -2829.293     59.991 
  3149.800      2.090     37.611    154.291     22.628    213.725    215.900    -44.375    104.429      0.229    109.295    104.429    109.295    214.492    218.591     17.689      6.182  -2829.467     59.982 
  3150.000      2.043     43.185    160.070     21.613    214.882    215.900    -43.053    105.002      0.229    109.880    105.002    109.880    212.764    219.760     17.682      6.180  -2829.641     59.976 
