~Version Information
#-------------------
VERS.        2.0: CWLS log ASCII Standart - VERSION 2.0
WRAP.         NO: One line per depth step
~Well Information Block
#----------------------
#MNEM.UNIT  VALUE: DESCRIPTION
#----.---- -------: -------------
STRT.м                          2167.4: Начальная глубина
STOP.м                            3615: Конечная глубина
STEP.м                             0.2: Шаг квантования
NULL.                         -9999.99: Код отсутствия
COMP.                  ООО LUKOIL-Komi: Название организации
WELL.                              134: Наименование скважины
FLD .                        Tedinskoe: Наименование площади
LOC .                                 : Расположение скважины
CTRY.                                 : Название страны
SRVC.                             PNGG: Наим.орг-ции, проводившей каротаж
DATE.                        10.08.08 : Дата регистрации каротажных данных
UWI .                                 : Уникальный идентификатор скважины
~Parameter Information
#---------------------
#MNEM.UNIT  VALUE: DESCRIPTION
#----.---- -------: ---------------
BS  .м      0.22: Диаметр долота
~Curve Information Block
#-----------------------
#MNEM   .UNIT          : CURVE DESCRIPTION
#-------.----          : -----------------
DEPT    .m             : Колонка глубины
GR      .ur/hr         : Гамма каротаж
IK      .msm/m         : Индукционный каротаж аппаратурой АИК-5 (активная составляющая)
GZ4     .Omm           : Градиент-зонд  длиной 4.5м
PZ      .Omm           : Потенциал-зонд A0.5M6.5N
DS      .mm            : Каверномер
BS      .mm            : Номинальный диаметр 215.9мм
PS      .mV            : Потенциал самополяризации
RRA1    .mm            : Радиус1
RRB_1   .Omm           : Резистивиметр
RRA2    .mm            : Радиус2
RRA3    .mm            : Радиус3
RRA4    .mm            : Радиус4
C1      .mm            : Профиль1
C2      .mm            : Профиль2
PEF     .m3            : Суммарный объем скважины
PEF     .m3            : Объем затрубья
АбсОтмкр.m             : Абсолютные отметки ПНГГ
TEMP    .grad          : Температура
~Other Information
#-----------------
tool=СРК
mode=ННКт
id=59
tool=АИК-5
mode=Основной
id=42
tool=ЭК-1
mode=БК
id=5
tool=ЭК-1
mode=БКЗ
id=5
tool=ИНС-60
mode=Основной
id=260


~Ascii Log Data
# ...
  2955.200      0.947      2.043    144.620     28.254    221.691    215.900    -30.829    107.601      0.239    114.089    107.601    114.089    215.356    228.179     24.970      8.620  -2665.590     59.786 
  2955.400      1.073      2.473    146.080     27.913    221.578    215.900    -31.361    107.489      0.232    114.089    107.489    114.089    215.407    228.179     24.962      8.618  -2665.758     59.785 
  2955.600      1.228      3.089    146.352     27.549    222.263    215.900    -31.635    108.174      0.236    114.089    108.174    114.089    215.441    228.179     24.954      8.615  -2665.927     59.797 
  2955.800      1.402      3.673    146.749     27.224    221.877    215.900    -31.482    107.787      0.239    114.089    107.787    114.089    215.459    228.179     24.946      8.612  -2666.096     59.797 
  2956.000      1.172      4.257    147.610     26.819    221.644    215.900    -30.895    107.555      0.239    114.089    107.555    114.089    215.448    228.179     24.939      8.609  -2666.264     59.797 
  2956.200      1.397      4.705    148.437     26.450    221.982    215.900    -30.125    107.893      0.234    114.089    107.893    114.089    215.401    228.179     24.931      8.607  -2666.433     59.805 
  2956.400      1.394      4.632    150.125     26.086    221.814    215.900    -29.501    107.725      0.235    114.089    107.725    114.089    215.346    228.179     24.923      8.604  -2666.602     59.812 
  2956.600      1.334      4.267    152.109     25.471    221.644    215.900    -29.211    107.555      0.234    114.089    107.555    114.089    215.311    228.179     24.915      8.601  -2666.770     59.808 
  2956.800      0.941      4.113    153.997     25.045    221.490    215.900    -29.182    107.401      0.235    114.089    107.401    114.089    215.306    228.179     24.908      8.598  -2666.939     59.814 
  2957.000      1.016      4.064    155.440     24.609    221.644    215.900    -29.253    107.555      0.229    114.089    107.555    114.089    215.350    228.179     24.900      8.596  -2667.108     59.826 
  2957.200      1.202      4.535    156.278     24.179    221.764    215.900    -29.310    107.674      0.236    114.089    107.674    114.089    215.446    228.179     24.892      8.593  -2667.276     59.832 
  2957.400      1.167      4.762    157.388     23.707    222.039    215.900    -29.351    107.950      0.231    114.089    107.950    114.089    215.601    228.179     24.885      8.590  -2667.445     59.837 
  2957.600      1.215      5.298    158.814     23.280    221.644    215.900    -29.443    107.555      0.229    114.089    107.555    114.089    215.791    228.179     24.877      8.587  -2667.614     59.846 
  2957.800      1.182      5.660    160.213     22.834    222.123    215.900    -29.685    108.034      0.229    114.089    108.034    114.089    215.999    228.179     24.869      8.585  -2667.783     59.853 
  2958.000      1.098      6.600    162.167     22.305    222.324    215.900    -30.156    108.314      0.233    114.010    108.314    114.010    216.203    228.020     24.861      8.582  -2667.951     59.849 
  2958.200      1.151      7.265    163.954     21.809    222.114    215.900    -30.812    108.174      0.229    113.940    108.174    113.940    216.408    227.880     24.854      8.579  -2668.120     59.848 
  2958.400      1.246      7.758    165.347     21.306    222.247    215.900    -31.460    108.237      0.230    114.010    108.237    114.010    216.580    228.020     24.846      8.576  -2668.289     59.846 
  2958.600      1.160      7.766    166.866     20.826    222.741    215.900    -31.833    108.731      0.234    114.010    108.731    114.010    216.728    228.020     24.838      8.574  -2668.457     59.844 
  2958.800      1.238      7.479    168.748     20.256    222.185    215.900    -31.789    108.174      0.234    114.010    108.174    114.010    216.853    228.020     24.830      8.571  -2668.626     59.840 
  2959.000      1.379      7.206    171.497     19.667    222.117    215.900    -31.375    108.639      0.229    113.479    108.639    113.479    216.955    226.957     24.823      8.568  -2668.795     59.846 
  2959.200      1.590      6.224    175.005     19.006    220.967    215.900    -30.792    108.174      0.229    112.793    108.174    112.793    216.996    225.586     24.815      8.565  -2668.963     59.855 
  2959.400      1.824      5.123    176.658     18.489    220.368    215.900    -30.204    108.871      0.229    111.497    108.871    111.497    216.969    222.994     24.807      8.563  -2669.132     59.865 
  2959.600      2.118      4.072    169.760     18.018    219.754    215.900    -29.714    108.871      0.229    110.883    108.871    110.883    216.854    221.766     24.800      8.560  -2669.301     59.870 
  2959.800      3.025      3.933    153.413     17.751    218.907    215.900    -29.370    108.448      0.229    110.459    108.448    110.459    216.638    220.917     24.792      8.557  -2669.469     59.880 
  2960.000      4.167      4.319    137.539     17.575    218.803    215.900    -29.256    108.632      0.237    110.172    108.632    110.172    216.342    220.343     24.784      8.555  -2669.638     59.883 
  2960.200      4.426      4.215    124.783     17.521    217.727    215.900    -29.433    107.555      0.239    110.172    107.555    110.172    216.018    220.344     24.777      8.552  -2669.807     59.874 
  2960.400      3.751      4.161    112.886     17.516    218.006    215.900    -29.887    107.555      0.238    110.451    107.555    110.451    215.698    220.902     24.769      8.550  -2669.976     59.868 
  2960.600      3.435      3.680    101.480     17.712    218.311    215.900    -30.555    107.555      0.235    110.756    107.555    110.756    215.402    221.512     24.762      8.547  -2670.144     59.870 
  2960.800      2.989      3.747     91.400     17.888    218.513    215.900    -31.392    107.555      0.239    110.958    107.555    110.958    215.162    221.916     24.755      8.545  -2670.313     59.863 
  2961.000      3.122      3.752     84.733     18.126    219.165    215.900    -32.372    107.555      0.238    111.610    107.555    111.610    214.968    223.219     24.747      8.542  -2670.482     59.861 
  2961.200      3.291      4.937     82.749     18.387    220.051    215.900    -33.380    107.555      0.239    112.496    107.555    112.496    214.786    224.991     24.739      8.540  -2670.651     59.866 
  2961.400      3.185      5.567     81.726     18.656    219.957    215.900    -34.209    107.555      0.239    112.402    107.555    112.402    214.624    224.804     24.732      8.537  -2670.820     59.877 
  2961.600      2.956      6.212     81.218     18.829    221.485    215.900    -34.728    106.730      0.239    114.755    106.730    114.755    214.486    229.510     24.724      8.534  -2670.988     59.873 
  2961.800      2.552      6.075     81.075     19.075    222.360    215.900    -35.004    106.872      0.239    115.489    106.872    115.489    214.363    230.978     24.717      8.532  -2671.157     59.878 
  2962.000      2.071      6.167     81.836     19.391    222.827    215.900    -35.227    107.338      0.239    115.489    107.338    115.489    214.256    230.978     24.709      8.529  -2671.326     59.885 
  2962.200      2.590      5.768     82.721     19.513    223.027    215.900    -35.455    107.538      0.235    115.489    107.538    115.489    214.201    230.978     24.701      8.526  -2671.495     59.890 
  2962.400      2.833      5.167     83.624     19.642    222.284    215.900    -35.575    106.795      0.239    115.489    106.795    115.489    214.204    230.978     24.693      8.523  -2671.664     59.880 
  2962.600      2.005      4.567     84.580     19.787    222.348    215.900    -35.445    106.859      0.239    115.489    106.859    115.489    214.293    230.978     24.685      8.520  -2671.832     59.889 
  2962.800      1.629      3.850     85.682     19.909    222.116    215.900    -35.078    106.627      0.239    115.489    106.627    115.489    214.464    230.978     24.678      8.518  -2672.001     59.889 
