~Version Information
#-------------------
VERS.        2.0: CWLS log ASCII Standart - VERSION 2.0
WRAP.         NO: One line per depth step
~Well Information Block
#----------------------
#MNEM.UNIT  VALUE: DESCRIPTION
#----.---- -------: -------------
STRT.м                          2167.4: Начальная глубина
STOP.м                            3615: Конечная глубина
STEP.м                             0.2: Шаг квантования
NULL.                         -9999.99: Код отсутствия
COMP.                  ООО LUKOIL-Komi: Название организации
WELL.                              134: Наименование скважины
FLD .                        Tedinskoe: Наименование площади
LOC .                                 : Расположение скважины
CTRY.                                 : Название страны
SRVC.                             PNGG: Наим.орг-ции, проводившей каротаж
DATE.                        10.08.08 : Дата регистрации каротажных данных
UWI .                                 : Уникальный идентификатор скважины
~Parameter Information
#---------------------
#MNEM.UNIT  VALUE: DESCRIPTION
#----.---- -------: ---------------
BS  .м      0.22: Диаметр долота
~Curve Information Block
#-----------------------
#MNEM   .UNIT          : CURVE DESCRIPTION
#-------.----          : -----------------
DEPT    .m             : Колонка глубины
GR      .ur/hr         : Гамма каротаж
IK      .msm/m         : Индукционный каротаж аппаратурой АИК-5 (активная составляющая)
GZ4     .Omm           : Градиент-зонд  длиной 4.5м
PZ      .Omm           : Потенциал-зонд A0.5M6.5N
DS      .mm            : Каверномер
BS      .mm            : Номинальный диаметр 215.9мм
PS      .mV            : Потенциал самополяризации
RRA1    .mm            : Радиус1
RRB_1   .Omm           : Резистивиметр
RRA2    .mm            : Радиус2
RRA3    .mm            : Радиус3
RRA4    .mm            : Радиус4
C1      .mm            : Профиль1
C2      .mm            : Профиль2
PEF     .m3            : Суммарный объем скважины
PEF     .m3            : Объем затрубья
АбсОтмкр.m             : Абсолютные отметки ПНГГ
TEMP    .grad          : Температура
~Other Information
#-----------------
tool=СРК
mode=ННКт
id=59
tool=АИК-5
mode=Основной
id=42
tool=ЭК-1
mode=БК
id=5
tool=ЭК-1
mode=БКЗ
id=5
tool=ИНС-60
mode=Основной
id=260


~Ascii Log Data
# ...
  2479.400      2.890     19.980     40.646     20.640    218.738    215.900     43.461    111.878      0.255    106.860    111.878    106.860    223.315    213.720     43.568     15.378  -2260.314     52.751 
  2479.600      3.201     19.895     43.740     20.691    218.687    215.900     44.277    111.833      0.255    106.854    111.833    106.854    223.221    213.708     43.560     15.376  -2260.485     52.754 
  2479.800      3.174     20.278     47.032     20.640    218.118    215.900     45.426    111.285      0.255    106.833    111.285    106.833    223.113    213.667     43.553     15.373  -2260.656     52.747 
  2480.000      3.336     21.067     49.876     20.569    218.358    215.900     46.533    111.538      0.249    106.820    111.538    106.820    223.007    213.641     43.545     15.371  -2260.827     52.751 
  2480.200      3.273     21.689     52.812     20.356    218.101    215.900     47.356    111.280      0.249    106.820    111.280    106.820    222.924    213.641     43.538     15.368  -2260.998     52.749 
  2480.400      3.536     22.320     56.180     19.995    218.296    215.900     47.796    111.476      0.255    106.820    111.476    106.820    222.895    213.641     43.530     15.366  -2261.168     52.749 
  2480.600      3.976     23.079     59.274     19.725    218.080    215.900     47.868    111.259      0.249    106.820    111.259    106.820    222.899    213.641     43.523     15.363  -2261.339     52.756 
  2480.800      3.895     24.150     60.447     19.385    218.784    215.900     47.611    111.569      0.250    107.216    111.569    107.216    222.938    214.431     43.515     15.361  -2261.509     52.765 
  2481.000      3.630     25.161     60.860     18.904    218.604    215.900     47.097    111.388      0.255    107.216    111.388    107.216    223.001    214.431     43.508     15.358  -2261.680     52.771 
  2481.200      3.861     26.033     61.628     18.586    218.841    215.900     46.444    111.515      0.255    107.326    111.515    107.326    223.092    214.653     43.500     15.356  -2261.850     52.775 
  2481.400      3.669     26.337     62.422     18.267    218.733    215.900     45.835    111.479      0.254    107.255    111.479    107.255    223.171    214.509     43.493     15.353  -2262.021     52.772 
  2481.600      3.914     26.606     63.386     18.013    219.333    215.900     45.434    112.118      0.255    107.216    112.118    107.216    223.250    214.431     43.485     15.351  -2262.191     52.774 
  2481.800      4.098     26.854     64.632     17.726    218.721    215.900     45.363    111.569      0.255    107.152    111.569    107.152    223.335    214.305     43.478     15.348  -2262.362     52.779 
  2482.000      4.044     27.433     65.896     17.414    218.653    215.900     45.624    111.365      0.255    107.288    111.365    107.288    223.438    214.575     43.470     15.346  -2262.532     52.774 
  2482.200      3.940     28.389     66.254     17.190    219.101    215.900     46.180    111.569      0.255    107.532    111.569    107.532    223.537    215.063     43.463     15.343  -2262.703     52.780 
  2482.400      4.213     29.717     66.749     16.824    219.681    215.900     46.900    112.149      0.255    107.532    112.149    107.532    223.680    215.063     43.455     15.340  -2262.873     52.787 
  2482.600      4.300     30.835     66.815     16.533    219.371    215.900     47.656    111.879      0.255    107.492    111.879    107.492    223.868    214.984     43.447     15.338  -2263.044     52.780 
  2482.800      4.141     31.604     66.295     16.259    219.528    215.900     48.306    112.076      0.255    107.453    112.076    107.453    224.093    214.905     43.440     15.335  -2263.214     52.775 
  2483.000      4.541     32.177     65.598     15.833    219.276    215.900     48.820    111.794      0.255    107.481    111.794    107.481    224.337    214.963     43.432     15.333  -2263.384     52.785 
  2483.200      4.840     33.009     64.566     15.621    219.720    215.900     49.207    112.188      0.255    107.532    112.188    107.532    224.609    215.063     43.425     15.330  -2263.555     52.780 
  2483.400      4.837     34.005     62.580     15.450    219.720    215.900     49.492    112.188      0.255    107.532    112.188    107.532    224.831    215.063     43.417     15.327  -2263.726     52.783 
  2483.600      4.735     34.599     60.197     15.297    221.036    215.900     49.642    113.504      0.255    107.532    113.504    107.532    224.960    215.063     43.410     15.325  -2263.896     52.791 
  2483.800      5.019     34.799     58.214     15.181    220.360    215.900     49.618    113.145      0.251    107.216    113.145    107.216    224.992    214.431     43.402     15.322  -2264.066     52.791 
  2484.000      4.782     34.224     56.466     15.160    219.562    215.900     49.405    112.188      0.255    107.374    112.188    107.374    224.934    214.747     43.394     15.320  -2264.237     52.782 
  2484.200      4.831     33.358     54.893     15.160    219.246    215.900     48.996    112.188      0.250    107.057    112.188    107.057    224.789    214.115     43.387     15.317  -2264.407     52.781 
  2484.400      4.894     32.458     53.290     15.176    219.246    215.900     48.348    112.188      0.251    107.057    112.188    107.057    224.625    214.115     43.379     15.314  -2264.578     52.779 
  2484.600      4.888     31.702     52.144     15.307    219.246    215.900     47.392    112.188      0.255    107.057    112.188    107.057    224.494    214.115     43.372     15.312  -2264.748     52.782 
  2484.800      4.630     31.269     51.265     15.374    218.971    215.900     46.148    112.059      0.255    106.912    112.059    106.912    224.404    213.825     43.364     15.309  -2264.919     52.787 
  2485.000      4.909     30.734     50.147     15.478    218.929    215.900     44.847    112.188      0.255    106.741    112.188    106.741    224.350    213.483     43.357     15.307  -2265.089     52.791 
  2485.200      4.844     30.198     48.863     15.570    218.771    215.900     43.885    112.188      0.252    106.583    112.188    106.583    224.318    213.166     43.349     15.304  -2265.260     52.799 
  2485.400      4.851     29.648     47.725     15.729    218.771    215.900     43.543    112.188      0.255    106.583    112.188    106.583    224.281    213.166     43.341     15.302  -2265.430     52.799 
  2485.600      4.615     29.042     46.870     15.915    218.771    215.900     43.813    112.188      0.255    106.583    112.188    106.583    224.213    213.166     43.334     15.299  -2265.601     52.794 
  2485.800      4.518     28.543     45.985     16.254    218.771    215.900     44.414    112.188      0.255    106.583    112.188    106.583    224.113    213.166     43.326     15.296  -2265.771     52.795 
  2486.000      4.235     27.698     45.310     16.419    218.771    215.900     45.075    112.188      0.255    106.583    112.188    106.583    223.990    213.166     43.319     15.294  -2265.942     52.802 
  2486.200      4.243     27.072     45.112     16.676    218.555    215.900     45.642    111.940      0.255    106.615    111.940    106.615    223.889    213.230     43.311     15.291  -2266.112     52.795 
  2486.400      4.484     26.419     45.344     16.999    217.922    215.900     46.108    111.259      0.254    106.662    111.259    106.662    223.812    213.325     43.304     15.289  -2266.283     52.803 
  2486.600      3.528     26.166     45.826     17.301    218.447    215.900     46.516    111.816      0.249    106.631    111.816    106.631    223.762    213.261     43.296     15.286  -2266.453     52.804 
  2486.800      3.289     25.947     46.104     17.524    218.573    215.900     46.931    111.911      0.255    106.662    111.911    106.662    223.729    213.325     43.289     15.284  -2266.624     52.800 
  2487.000      3.725     25.489     46.175     17.735    218.771    215.900     47.367    112.188      0.251    106.583    112.188    106.583    223.696    213.166     43.281     15.281  -2266.794     52.793 
