~Version Information
#-------------------
VERS.        2.0: CWLS log ASCII Standart - VERSION 2.0
WRAP.         NO: One line per depth step
~Well Information Block
#----------------------
#MNEM.UNIT  VALUE: DESCRIPTION
#----.---- -------: -------------
STRT.м                          2167.4: Начальная глубина
STOP.м                            3615: Конечная глубина
STEP.м                             0.2: Шаг квантования
NULL.                         -9999.99: Код отсутствия
COMP.                  ООО LUKOIL-Komi: Название организации
WELL.                              134: Наименование скважины
FLD .                        Tedinskoe: Наименование площади
LOC .                                 : Расположение скважины
CTRY.                                 : Название страны
SRVC.                             PNGG: Наим.орг-ции, проводившей каротаж
DATE.                        10.08.08 : Дата регистрации каротажных данных
UWI .                                 : Уникальный идентификатор скважины
~Parameter Information
#---------------------
#MNEM.UNIT  VALUE: DESCRIPTION
#----.---- -------: ---------------
BS  .м      0.22: Диаметр долота
~Curve Information Block
#-----------------------
#MNEM   .UNIT          : CURVE DESCRIPTION
#-------.----          : -----------------
DEPT    .m             : Колонка глубины
GR      .ur/hr         : Гамма каротаж
IK      .msm/m         : Индукционный каротаж аппаратурой АИК-5 (активная составляющая)
GZ4     .Omm           : Градиент-зонд  длиной 4.5м
PZ      .Omm           : Потенциал-зонд A0.5M6.5N
DS      .mm            : Каверномер
BS      .mm            : Номинальный диаметр 215.9мм
PS      .mV            : Потенциал самополяризации
RRA1    .mm            : Радиус1
RRB_1   .Omm           : Резистивиметр
RRA2    .mm            : Радиус2
RRA3    .mm            : Радиус3
RRA4    .mm            : Радиус4
C1      .mm            : Профиль1
C2      .mm            : Профиль2
PEF     .m3            : Суммарный объем скважины
PEF     .m3            : Объем затрубья
АбсОтмкр.m             : Абсолютные отметки ПНГГ
TEMP    .grad          : Температура
~Other Information
#-----------------
tool=СРК
mode=ННКт
id=59
tool=АИК-5
mode=Основной
id=42
tool=ЭК-1
mode=БК
id=5
tool=ЭК-1
mode=БКЗ
id=5
tool=ИНС-60
mode=Основной
id=260


~Ascii Log Data
# ...
  2853.800      2.849     86.462     20.424      7.836    212.153    215.900     54.560    104.319      0.249    107.835    104.319    107.835    210.260    215.670     28.691      9.819  -2579.218     58.088 
  2854.000      2.459     88.998     20.063      7.793    212.540    215.900     55.200    104.706      0.249    107.835    104.706    107.835    210.099    215.670     28.684      9.817  -2579.388     58.103 
  2854.200      2.550     91.375     19.702      7.694    212.850    215.900     55.779    105.015      0.249    107.835    105.015    107.835    210.026    215.670     28.677      9.815  -2579.559     58.110 
  2854.400      2.391     92.538     19.702      7.546    212.953    215.900     56.208    105.136      0.249    107.817    105.136    107.817    210.027    215.635     28.670      9.813  -2579.730     58.115 
  2854.600      2.766     94.404     19.702      7.282    213.005    215.900     56.566    105.170      0.249    107.835    105.170    107.835    210.027    215.670     28.663      9.810  -2579.901     58.112 
  2854.800      2.555     98.413     19.206      7.017    213.406    215.900     57.021    105.571      0.249    107.835    105.571    107.835    210.003    215.670     28.656      9.808  -2580.072     58.117 
  2855.000      2.875    102.211     18.168      6.726    212.963    215.900     57.576    105.128      0.249    107.835    105.128    107.835    209.980    215.670     28.649      9.806  -2580.243     58.113 
  2855.200      3.211    105.407     17.266      6.504    212.205    215.900     58.115    104.370      0.249    107.835    104.370    107.835    210.008    215.670     28.642      9.804  -2580.414     58.112 
  2855.400      3.159    109.768     16.490      6.243    212.231    215.900     58.503    104.396      0.249    107.835    104.396    107.835    210.129    215.670     28.634      9.802  -2580.585     58.119 
  2855.600      2.600    113.370     15.919      6.032    212.738    215.900     58.674    104.903      0.249    107.835    104.903    107.835    210.414    215.670     28.627      9.800  -2580.756     58.130 
  2855.800      2.315    118.447     15.501      5.797    213.255    215.900     58.625    105.226      0.249    108.029    105.226    108.029    210.860    216.058     28.620      9.798  -2580.927     58.130 
  2856.000      2.084    119.921     14.888      5.527    214.397    215.900     58.402    105.882      0.249    108.515    105.882    108.515    211.407    217.029     28.613      9.795  -2581.098     58.140 
  2856.200      2.159    124.709     14.164      5.190    214.490    215.900     58.138    105.944      0.249    108.546    105.944    108.546    211.981    217.092     28.606      9.793  -2581.269     58.154 
  2856.400      2.071    128.464     13.431      4.763    214.915    215.900     58.044    106.254      0.249    108.661    106.254    108.661    212.506    217.322     28.599      9.791  -2581.440     58.160 
  2856.600      2.224    131.083     12.555      4.372    215.577    215.900     58.258    106.873      0.249    108.704    106.873    108.704    212.867    217.409     28.591      9.789  -2581.611     58.156 
  2856.800      1.991    130.368     11.316      4.063    216.506    215.900     58.798    107.802      0.248    108.704    107.802    108.704    213.038    217.409     28.584      9.786  -2581.782     58.166 
  2857.000      1.853    130.638      9.975      3.857    216.198    215.900     59.544    106.704      0.246    109.495    106.704    109.495    213.069    218.989     28.577      9.784  -2581.953     58.168 
  2857.200      1.880    135.104      8.477      3.750    215.439    215.900     60.429    105.944      0.249    109.495    105.944    109.495    213.013    218.989     28.569      9.782  -2582.123     58.158 
  2857.400      2.170    144.689      7.593      3.688    215.826    215.900     61.394    106.252      0.249    109.574    106.252    109.574    212.935    219.147     28.562      9.779  -2582.294     58.154 
  2857.600      2.533    154.257      7.130      3.679    215.782    215.900     62.379    106.129      0.249    109.653    106.129    109.653    212.923    219.306     28.555      9.777  -2582.465     58.162 
  2857.800      2.023    159.408      6.733      3.597    215.906    215.900     63.237    106.254      0.249    109.653    106.254    109.653    213.013    219.306     28.547      9.775  -2582.636     58.152 
  2858.000      2.027    159.754      6.319      3.579    216.071    215.900     63.834    105.944      0.246    110.127    105.944    110.127    213.140    220.254     28.540      9.772  -2582.807     58.151 
  2858.200      2.265    153.501      5.630      3.534    218.042    215.900     64.089    107.441      0.249    110.601    107.441    110.601    213.237    221.203     28.533      9.770  -2582.978     58.158 
  2858.400      2.044    146.956      5.365      3.562    217.218    215.900     63.962    107.723      0.244    109.496    107.723    109.496    213.259    218.991     28.525      9.767  -2583.149     58.164 
  2858.600      2.017    139.136      5.012      3.739    216.174    215.900     63.403    106.768      0.246    109.406    106.768    109.406    213.187    218.811     28.518      9.765  -2583.320     58.154 
  2858.800      2.062    137.778      4.814      3.892    214.735    215.900     62.408    106.031      0.248    108.704    106.031    108.704    213.013    217.409     28.511      9.763  -2583.491     58.164 
  2859.000      1.798    139.558      4.682      4.067    214.863    215.900     61.189    105.944      0.244    108.919    105.944    108.919    212.797    217.839     28.503      9.760  -2583.662     58.171 
  2859.200      1.720    142.861      4.615      4.186    214.831    215.900     60.253    106.232      0.244    108.599    106.232    108.599    212.589    217.197     28.496      9.758  -2583.833     58.174 
  2859.400      1.720    146.290      4.439      4.223    215.141    215.900     60.153    106.595      0.244    108.546    106.595    108.546    212.425    217.092     28.489      9.756  -2584.004     58.180 
  2859.600      1.804    147.183      4.218      4.302    214.648    215.900     61.034    105.944      0.241    108.704    105.944    108.704    212.304    217.408     28.482      9.753  -2584.175     58.202 
  2859.800      1.933    146.971      4.092      4.259    213.842    215.900     62.475    105.944      0.244    107.898    105.944    107.898    212.220    215.797     28.474      9.751  -2584.346     58.207 
  2860.000      1.933    145.579      4.020      4.154    214.292    215.900     63.815    106.185      0.244    108.107    106.185    108.107    212.150    216.214     28.467      9.749  -2584.517     58.209 
  2860.200      1.949    144.705      3.854      4.102    214.028    215.900     64.688    106.106      0.244    107.922    106.106    107.922    212.096    215.843     28.460      9.747  -2584.687     58.219 
  2860.400      2.209    147.108      3.722      4.061    213.571    215.900     65.106    105.944      0.244    107.626    105.944    107.626    212.045    215.253     28.453      9.745  -2584.858     58.228 
  2860.600      2.291    147.847      3.533      3.995    213.621    215.900     65.237    105.944      0.244    107.677    105.944    107.677    211.987    215.353     28.446      9.742  -2585.028     58.224 
  2860.800      2.310    147.156      3.424      3.925    213.569    215.900     65.091    105.892      0.244    107.677    105.892    107.677    211.905    215.353     28.438      9.740  -2585.199     58.231 
  2861.000      2.221    142.636      3.340      3.841    214.054    215.900     64.524    106.377      0.243    107.677    106.377    107.677    211.809    215.353     28.431      9.738  -2585.369     58.244 
  2861.200      1.996    138.206      3.248      3.756    213.198    215.900     63.300    105.522      0.244    107.677    105.522    107.677    211.676    215.353     28.424      9.736  -2585.540     58.248 
  2861.400      1.833    137.575      3.171      3.613    213.621    215.900     61.201    105.944      0.244    107.677    105.944    107.677    211.489    215.353     28.417      9.734  -2585.711     58.254 
