~Version Information
#-------------------
VERS.        2.0: CWLS log ASCII Standart - VERSION 2.0
WRAP.         NO: One line per depth step
~Well Information Block
#----------------------
#MNEM.UNIT  VALUE: DESCRIPTION
#----.---- -------: -------------
STRT.м                          2167.4: Начальная глубина
STOP.м                            3615: Конечная глубина
STEP.м                             0.2: Шаг квантования
NULL.                         -9999.99: Код отсутствия
COMP.                  ООО LUKOIL-Komi: Название организации
WELL.                              134: Наименование скважины
FLD .                        Tedinskoe: Наименование площади
LOC .                                 : Расположение скважины
CTRY.                                 : Название страны
SRVC.                             PNGG: Наим.орг-ции, проводившей каротаж
DATE.                        10.08.08 : Дата регистрации каротажных данных
UWI .                                 : Уникальный идентификатор скважины
~Parameter Information
#---------------------
#MNEM.UNIT  VALUE: DESCRIPTION
#----.---- -------: ---------------
BS  .м      0.22: Диаметр долота
~Curve Information Block
#-----------------------
#MNEM   .UNIT          : CURVE DESCRIPTION
#-------.----          : -----------------
DEPT    .m             : Колонка глубины
GR      .ur/hr         : Гамма каротаж
IK      .msm/m         : Индукционный каротаж аппаратурой АИК-5 (активная составляющая)
GZ4     .Omm           : Градиент-зонд  длиной 4.5м
PZ      .Omm           : Потенциал-зонд A0.5M6.5N
DS      .mm            : Каверномер
BS      .mm            : Номинальный диаметр 215.9мм
PS      .mV            : Потенциал самополяризации
RRA1    .mm            : Радиус1
RRB_1   .Omm           : Резистивиметр
RRA2    .mm            : Радиус2
RRA3    .mm            : Радиус3
RRA4    .mm            : Радиус4
C1      .mm            : Профиль1
C2      .mm            : Профиль2
PEF     .m3            : Суммарный объем скважины
PEF     .m3            : Объем затрубья
АбсОтмкр.m             : Абсолютные отметки ПНГГ
TEMP    .grad          : Температура
~Other Information
#-----------------
tool=СРК
mode=ННКт
id=59
tool=АИК-5
mode=Основной
id=42
tool=ЭК-1
mode=БК
id=5
tool=ЭК-1
mode=БКЗ
id=5
tool=ИНС-60
mode=Основной
id=260


~Ascii Log Data
# ...
  2198.600  -9999.990  -9999.990  -9999.990  -9999.990    224.295  -9999.990  -9999.990    111.786      0.254    112.508    111.786    112.508    223.573    225.017  -9999.990  -9999.990  -2020.238  -9999.990 
  2198.800  -9999.990  -9999.990  -9999.990  -9999.990    224.295  -9999.990  -9999.990    111.786      0.251    112.508    111.786    112.508    223.573    225.017  -9999.990  -9999.990  -2020.409  -9999.990 
  2199.000  -9999.990  -9999.990  -9999.990  -9999.990    224.295  -9999.990  -9999.990    111.786      0.255    112.508    111.786    112.508    223.573    225.017  -9999.990  -9999.990  -2020.580  -9999.990 
  2199.200  -9999.990  -9999.990  -9999.990  -9999.990    224.295  -9999.990  -9999.990    111.786      0.255    112.508    111.786    112.508    223.573    225.017  -9999.990  -9999.990  -2020.751  -9999.990 
  2199.400  -9999.990  -9999.990  -9999.990  -9999.990    224.295  -9999.990  -9999.990    111.786      0.255    112.508    111.786    112.508    223.573    225.017  -9999.990  -9999.990  -2020.922  -9999.990 
  2199.600  -9999.990  -9999.990  -9999.990  -9999.990    224.295  -9999.990  -9999.990    111.786      0.249    112.508    111.786    112.508    223.573    225.017  -9999.990  -9999.990  -2021.093  -9999.990 
  2199.800  -9999.990  -9999.990  -9999.990  -9999.990    224.561  -9999.990  -9999.990    111.786      0.249    112.774    111.786    112.774    223.573    225.549  -9999.990  -9999.990  -2021.264  -9999.990 
  2200.000  -9999.990  -9999.990  -9999.990  -9999.990    224.587  -9999.990  -9999.990    111.786      0.249    112.801    111.786    112.801    223.575    225.601  -9999.990  -9999.990  -2021.436  -9999.990 
  2200.200  -9999.990  -9999.990  -9999.990  -9999.990    224.587  -9999.990  -9999.990    111.786      0.245    112.801    111.786    112.801    223.571    225.601  -9999.990  -9999.990  -2021.606  -9999.990 
  2200.400  -9999.990  -9999.990  -9999.990  -9999.990    224.587  -9999.990  -9999.990    111.786      0.249    112.801    111.786    112.801    223.572    225.601  -9999.990  -9999.990  -2021.778  -9999.990 
  2200.600  -9999.990  -9999.990  -9999.990  -9999.990    224.587  -9999.990  -9999.990    111.786      0.246    112.801    111.786    112.801    223.577    225.601  -9999.990  -9999.990  -2021.948  -9999.990 
  2200.800  -9999.990  -9999.990     -0.050  -9999.990    224.587  -9999.990  -9999.990    111.786      0.248    112.801    111.786    112.801    223.585    225.601  -9999.990  -9999.990  -2022.119  -9999.990 
  2201.000  -9999.990  -9999.990  -9999.990  -9999.990    224.574  -9999.990  -9999.990    111.774      0.258    112.801    111.774    112.801    223.585    225.601  -9999.990  -9999.990  -2022.290  -9999.990 
  2201.200  -9999.990  -9999.990      0.045  -9999.990    224.943  -9999.990  -9999.990    111.971      0.236    112.972    111.971    112.972    223.606    225.943  -9999.990  -9999.990  -2022.461  -9999.990 
  2201.400  -9999.990  -9999.990  -9999.990  -9999.990    223.471  -9999.990  -9999.990    111.168      0.261    112.303    111.168    112.303    223.608    224.606  -9999.990  -9999.990  -2022.632  -9999.990 
  2201.600  -9999.990  -9999.990  -9999.990  -9999.990    226.227  -9999.990  -9999.990    112.600      0.254    113.627    112.600    113.627    223.596    227.254  -9999.990  -9999.990  -2022.803  -9999.990 
  2201.800  -9999.990  -9999.990  -9999.990  -9999.990    223.596  -9999.990  -9999.990    111.671      0.255    111.924    111.671    111.924    223.574    223.848  -9999.990  -9999.990  -2022.974  -9999.990 
  2202.000  -9999.990  -9999.990  -9999.990  -9999.990    223.596  -9999.990  -9999.990    111.671      0.255    111.924    111.671    111.924    223.555    223.848  -9999.990  -9999.990  -2023.145  -9999.990 
  2202.200  -9999.990  -9999.990  -9999.990  -9999.990    223.657  -9999.990  -9999.990    111.654      0.255    112.003    111.654    112.003    223.508    224.007  -9999.990  -9999.990  -2023.316  -9999.990 
  2202.400  -9999.990  -9999.990  -9999.990  -9999.990    223.763  -9999.990  -9999.990    111.716      0.252    112.047    111.716    112.047    223.472    224.094  -9999.990  -9999.990  -2023.487  -9999.990 
  2202.600  -9999.990  -9999.990  -9999.990  -9999.990    224.282  -9999.990  -9999.990    111.804      0.255    112.478    111.804    112.478    223.443    224.955  -9999.990  -9999.990  -2023.658  -9999.990 
  2202.800  -9999.990  -9999.990  -9999.990  -9999.990    224.384  -9999.990  -9999.990    111.748      0.255    112.636    111.748    112.636    223.421    225.271  -9999.990  -9999.990  -2023.829  -9999.990 
  2203.000  -9999.990  -9999.990  -9999.990  -9999.990    224.295  -9999.990  -9999.990    111.659      0.249    112.636    111.659    112.636    223.402    225.271  -9999.990  -9999.990  -2024.000  -9999.990 
  2203.200  -9999.990  -9999.990  -9999.990  -9999.990    224.328  -9999.990  -9999.990    111.693      0.255    112.636    111.693    112.636    223.406    225.271  -9999.990  -9999.990  -2024.171  -9999.990 
  2203.400  -9999.990  -9999.990  -9999.990  -9999.990    224.152  -9999.990  -9999.990    111.517      0.255    112.636    111.517    112.636    223.422    225.271  -9999.990  -9999.990  -2024.342  -9999.990 
  2203.600  -9999.990  -9999.990  -9999.990  -9999.990    224.388  -9999.990  -9999.990    111.752      0.252    112.636    111.752    112.636    223.449    225.271  -9999.990  -9999.990  -2024.513  -9999.990 
  2203.800  -9999.990  -9999.990  -9999.990  -9999.990    224.462  -9999.990  -9999.990    111.826      0.255    112.636    111.826    112.636    223.485    225.271  -9999.990  -9999.990  -2024.683  -9999.990 
  2204.000      2.784  -9999.990  -9999.990  -9999.990    224.388  -9999.990  -9999.990    111.752      0.255    112.636    111.752    112.636    223.527    225.271  -9999.990  -9999.990  -2024.854  -9999.990 
  2204.200      2.976  -9999.990  -9999.990  -9999.990    224.453  -9999.990  -9999.990    111.817      0.255    112.636    111.817    112.636    223.562    225.271  -9999.990  -9999.990  -2025.025  -9999.990 
  2204.400      2.976  -9999.990  -9999.990  -9999.990    224.462  -9999.990  -9999.990    111.826      0.249    112.636    111.826    112.636    223.588    225.271  -9999.990  -9999.990  -2025.196  -9999.990 
  2204.600      3.122  -9999.990  -9999.990  -9999.990    224.395  -9999.990  -9999.990    111.759      0.254    112.636    111.759    112.636    223.606    225.271  -9999.990  -9999.990  -2025.367  -9999.990 
  2204.800      3.502  -9999.990  -9999.990  -9999.990    224.462  -9999.990  -9999.990    111.826      0.255    112.636    111.826    112.636    223.617    225.271  -9999.990  -9999.990  -2025.538  -9999.990 
  2205.000      3.513  -9999.990  -9999.990  -9999.990    224.462  -9999.990  -9999.990    111.826      0.249    112.636    111.826    112.636    223.620    225.271  -9999.990  -9999.990  -2025.709  -9999.990 
  2205.200      3.335  -9999.990  -9999.990  -9999.990    224.462  -9999.990  -9999.990    111.826      0.255    112.636    111.826    112.636    223.620    225.271  -9999.990  -9999.990  -2025.880  -9999.990 
  2205.400      3.413  -9999.990  -9999.990  -9999.990    224.462  -9999.990  -9999.990    111.826      0.255    112.636    111.826    112.636    223.619    225.271  -9999.990  -9999.990  -2026.051  -9999.990 
  2205.600      3.340  -9999.990  -9999.990  -9999.990    224.388  -9999.990  -9999.990    111.752      0.252    112.636    111.752    112.636    223.617    225.271  -9999.990  -9999.990  -2026.222  -9999.990 
  2205.800      3.609  -9999.990  -9999.990  -9999.990    224.462  -9999.990  -9999.990    111.826      0.250    112.636    111.826    112.636    223.615    225.271  -9999.990  -9999.990  -2026.393  -9999.990 
  2206.000      3.796  -9999.990  -9999.990  -9999.990    224.462  -9999.990  -9999.990    111.826      0.254    112.636    111.826    112.636    223.616    225.271  -9999.990  -9999.990  -2026.564  -9999.990 
  2206.200      3.639  -9999.990  -9999.990  -9999.990    224.400  -9999.990  -9999.990    111.764      0.249    112.636    111.764    112.636    223.618    225.271  -9999.990  -9999.990  -2026.735  -9999.990 
