~Version Information
#-------------------
VERS.        2.0: CWLS log ASCII Standart - VERSION 2.0
WRAP.         NO: One line per depth step
~Well Information Block
#----------------------
#MNEM.UNIT  VALUE: DESCRIPTION
#----.---- -------: -------------
STRT.м                            3615: Начальная глубина
STOP.м                            3296: Конечная глубина
STEP.м                            -0.2: Шаг квантования
NULL.                        -9999.999: Код отсутствия
COMP.                  ООО LUKOIL-Komi: Название организации
WELL.                              134: Наименование скважины
FLD .                        Tedinskoe: Наименование площади
LOC .                                 : Расположение скважины
CTRY.                                 : Название страны
SRVC.                             PNGG: Наим.орг-ции, проводившей каротаж
DATE.                         12-08-08: Дата регистрации каротажных данных
UWI .                                 : Уникальный идентификатор скважины
~Parameter Information
#---------------------
#MNEM.UNIT  VALUE: DESCRIPTION
#----.---- -------: ---------------
~Curve Information Block
#-----------------------
#MNEM   .UNIT         : CURVE DESCRIPTION
#-------.----         : -----------------
DEPT    .м            : Колонка глубины
GK_spek .imp          : Гамма каротаж по СГК
K       .             : Содержание калия
U       .ppm          : Содержание урана
TH      .ppm          : Содержание тория
THU     .otn.ed       : Отношение TH/U
UK      .ppm          : Отношение U/K
THK     .ppm          : Отношение TH/K
АбсОтмкр.м            : Абс.отметки ПНГГ
qсгк    .             : Двойной разностной параметр по СГК
~Other Information
#-----------------
~Ascii Log Data
# ...
  3323.000   5010.313      3.072      2.483      6.667      3.930      0.810      2.275  -2981.215      0.642 
  3322.800   5172.312      3.116      2.442      6.267      4.291      0.772      2.155  -2981.037      0.666 
  3322.600   5274.731      3.373      2.603      5.501      3.718      0.770      1.755  -2980.858      0.680 
  3322.400   4879.676      3.659      2.435      5.354      3.052      0.691      1.497  -2980.680      0.623 
  3322.200   5254.873      3.654      1.714      6.153      3.755      0.486      1.728  -2980.501      0.677 
  3322.000   4863.998      3.697      1.845      5.935      3.373      0.518      1.653  -2980.322      0.621 
  3321.800   4962.240      3.793      2.357      5.644      2.499      0.636      1.533  -2980.144      0.635 
  3321.600   5110.646      3.858      2.659      5.651      2.217      0.706      1.503  -2979.965      0.657 
  3321.400   5123.188      3.690      2.455      5.907      2.805      0.673      1.652  -2979.786      0.658 
  3321.200   4984.188      3.568      1.335      6.313      9.819      0.416      1.821  -2979.608      0.638 
  3321.000   4272.458      3.334      1.031      6.098     11.790      0.396      1.866  -2979.429      0.536 
  3320.800   3955.789      3.225      1.403      5.476      8.965      0.517      1.735  -2979.251      0.490 
  3320.600   4220.204      3.155      1.884      4.892      2.632      0.625      1.603  -2979.072      0.528 
  3320.400   4495.069      3.362      1.612      5.660      3.673      0.497      1.729  -2978.893      0.568 
  3320.200   4708.274      3.318      1.737      6.057      3.812      0.549      1.878  -2978.715      0.599 
  3320.000   5222.474      3.186      2.347      6.153      3.127      0.782      1.993  -2978.536      0.673 
  3319.800   5255.917      3.285      2.427      6.142      3.125      0.805      1.939  -2978.357      0.678 
  3319.600   5255.919      3.586      2.317      6.363      3.468      0.703      1.840  -2978.178      0.678 
  3319.400   5358.341      3.854      2.200      7.166      3.670      0.588      1.907  -2977.999      0.692 
  3319.200   6202.800      4.163      1.808      8.640     13.066      0.513      2.111  -2977.820      0.814 
  3319.000   6713.867      4.445      1.082      9.547     17.919      0.316      2.198  -2977.641      0.888 
  3318.800   6635.482      4.173      0.877      8.967     15.574      0.275      2.227  -2977.462      0.877 
  3318.600   5807.743      3.729      1.160      7.768      6.944      0.333      2.177  -2977.284      0.757 
  3318.400   5399.101      3.502      1.989      6.250      5.279      0.600      1.849  -2977.105      0.698 
  3318.200   5571.549      3.651      2.538      5.804      3.914      0.738      1.610  -2976.926      0.723 
  3318.000   5776.389      3.634      2.337      6.828      5.019      0.674      1.912  -2976.747      0.753 
  3317.800   5776.391      3.714      1.321      8.658      7.898      0.364      2.398  -2976.568      0.753 
  3317.600   5474.350      3.836      1.110      9.402      8.754      0.296      2.519  -2976.389      0.709 
  3317.400   6180.854      4.283      1.443      9.524      6.840      0.342      2.306  -2976.210      0.811 
  3317.200   6882.128      4.433      1.583     10.201      6.630      0.364      2.400  -2976.031      0.912 
  3317.000   7011.729      4.420      1.631      9.865      6.187      0.377      2.331  -2975.852      0.931 
  3316.800   6561.276      4.143      2.578      8.432      4.725      0.654      2.095  -2975.673      0.866 
  3316.600   6785.978      4.122      3.372      6.518      2.550      0.860      1.610  -2975.494      0.898 
  3316.400   6544.558      4.015      3.631      6.019      1.750      0.932      1.537  -2975.315      0.864 
  3316.200   6373.153      4.169      2.842      6.946      2.552      0.703      1.700  -2975.136      0.839 
  3316.000   6912.437      4.563      1.926      8.964     14.027      0.479      1.983  -2974.957      0.917 
  3315.800   7158.044      4.743      2.039      9.403     17.483      0.493      2.003  -2974.778      0.952 
  3315.600   7107.876      4.686      3.341      8.702     12.995      0.783      1.874  -2974.599      0.945 
  3315.400   7489.345      4.577      4.220      7.250      1.806      0.951      1.624  -2974.420      1.000 
  3315.200   7015.905      4.642      3.259      7.109      2.518      0.721      1.570  -2974.241      0.932 
  3315.000   6472.442      4.486      3.179      6.262      2.484      0.744      1.424  -2974.062      0.853 
  3314.800   6340.755      4.381      2.779      6.634      9.648      0.688      1.537  -2973.884      0.834 
  3314.600   5891.353      4.371      2.294      6.652     12.066      0.575      1.543  -2973.705      0.769 
  3314.400   6071.115      4.341      1.314      6.864     10.672      0.326      1.613  -2973.526      0.795 
  3314.200   5797.291      3.768      1.873      5.992      3.342      0.546      1.672  -2973.347      0.756 
  3314.000   4455.355      3.049      1.933      4.462      2.409      0.705      1.439  -2973.168      0.562 
  3313.800   3146.864      2.429      1.819      3.000      1.670      0.774      1.252  -2972.989      0.373 
  3313.600   2799.885      2.115      1.554      2.262      1.567      0.782      1.145  -2972.810      0.323 
  3313.400   2572.048      2.047      1.627      2.793      1.763      0.844      1.421  -2972.631      0.290 
  3313.200   3211.662      2.456      1.756      3.652      2.120      0.800      1.502  -2972.452      0.382 
  3313.000   4222.293      2.789      2.064      4.213      2.258      0.814      1.539  -2972.273      0.528 
  3312.800   4172.126      2.874      2.192      4.157      2.104      0.826      1.476  -2972.094      0.521 
  3312.600   4041.491      2.736      2.154      3.882      1.910      0.829      1.468  -2971.915      0.502 
  3312.400   3469.807      2.647      2.017      3.658      1.913      0.816      1.409  -2971.736      0.420 
  3312.200   3021.450      2.645      1.473      3.458      5.190      0.673      1.330  -2971.557      0.355 
  3312.000   3396.649      2.769      0.948      3.988      7.888      0.460      1.460  -2971.378      0.409 
  3311.800   3791.706      3.070      0.962      4.708      7.571      0.346      1.595  -2971.199      0.466 
  3311.600   3992.368      3.001      1.104      4.958      8.409      0.389      1.734  -2971.020      0.495 
  3311.400   3548.192      2.733      0.883      4.367      9.094      0.355      1.673  -2970.841      0.431 
  3311.200   2673.424      2.327      1.137      3.385      7.325      0.601      1.461  -2970.662      0.305 
  3311.000   2690.146      2.049      1.778      2.342      2.040      0.928      1.198  -2970.483      0.307 
  3310.800   2780.028      2.031      1.566      2.214      2.390      0.831      1.157  -2970.305      0.320 
  3310.600   2611.763      1.857      0.977      2.427      3.146      0.618      1.437  -2970.126      0.296 
  3310.400   2252.240      1.685      1.267      2.269      2.592      0.884      1.491  -2969.947      0.244 
  3310.200   2264.781      1.633      1.505      2.554      2.092      1.018      1.659  -2969.768      0.246 
  3310.000   2174.901      1.722      1.380      2.541      2.236      0.889      1.531  -2969.589      0.233 
  3309.800   2157.134      1.751      1.059      2.383      2.336      0.660      1.416  -2969.410      0.230 
  3309.600   2375.564      1.848      1.131      2.159      1.911      0.662      1.234  -2969.231      0.262 
  3309.400   2796.749      2.145      1.342      2.562      1.961      0.650      1.251  -2969.052      0.323 
  3309.200   3153.135      2.336      1.845      3.029      1.720      0.817      1.350  -2968.873      0.374 
  3309.000   3349.618      2.436      1.606      3.850      6.122      0.706      1.641  -2968.694      0.402 
  3308.800   2722.545      2.242      1.771      3.765      7.389      0.959      1.714  -2968.515      0.312 
  3308.600   2661.928      2.235      1.928      3.796      6.025      1.059      1.719  -2968.337      0.303 
