~Version Information
#-------------------
VERS.        2.0: CWLS log ASCII Standart - VERSION 2.0
WRAP.         NO: One line per depth step
~Well Information Block
#----------------------
#MNEM.UNIT  VALUE: DESCRIPTION
#----.---- -------: -------------
STRT.м                          2167.4: Начальная глубина
STOP.м                            3615: Конечная глубина
STEP.м                             0.2: Шаг квантования
NULL.                         -9999.99: Код отсутствия
COMP.                  ООО LUKOIL-Komi: Название организации
WELL.                              134: Наименование скважины
FLD .                        Tedinskoe: Наименование площади
LOC .                                 : Расположение скважины
CTRY.                                 : Название страны
SRVC.                             PNGG: Наим.орг-ции, проводившей каротаж
DATE.                        10.08.08 : Дата регистрации каротажных данных
UWI .                                 : Уникальный идентификатор скважины
~Parameter Information
#---------------------
#MNEM.UNIT  VALUE: DESCRIPTION
#----.---- -------: ---------------
BS  .м      0.22: Диаметр долота
~Curve Information Block
#-----------------------
#MNEM   .UNIT          : CURVE DESCRIPTION
#-------.----          : -----------------
DEPT    .m             : Колонка глубины
GR      .ur/hr         : Гамма каротаж
IK      .msm/m         : Индукционный каротаж аппаратурой АИК-5 (активная составляющая)
GZ4     .Omm           : Градиент-зонд  длиной 4.5м
PZ      .Omm           : Потенциал-зонд A0.5M6.5N
DS      .mm            : Каверномер
BS      .mm            : Номинальный диаметр 215.9мм
PS      .mV            : Потенциал самополяризации
RRA1    .mm            : Радиус1
RRB_1   .Omm           : Резистивиметр
RRA2    .mm            : Радиус2
RRA3    .mm            : Радиус3
RRA4    .mm            : Радиус4
C1      .mm            : Профиль1
C2      .mm            : Профиль2
PEF     .m3            : Суммарный объем скважины
PEF     .m3            : Объем затрубья
АбсОтмкр.m             : Абсолютные отметки ПНГГ
TEMP    .grad          : Температура
~Other Information
#-----------------
tool=СРК
mode=ННКт
id=59
tool=АИК-5
mode=Основной
id=42
tool=ЭК-1
mode=БК
id=5
tool=ЭК-1
mode=БКЗ
id=5
tool=ИНС-60
mode=Основной
id=260


~Ascii Log Data
# ...
  3329.600      1.476      9.938     57.965     29.603    209.731    215.900   -170.874    110.131      0.229     99.600    110.131     99.600    220.360    199.200     10.202      3.169  -2987.110     62.371 
  3329.800      1.703      9.937     60.735     29.929    209.517    215.900   -173.866    110.119      0.229     99.398    110.119     99.398    220.206    198.797     10.195      3.167  -2987.288     62.365 
  3330.000      1.920      9.430     64.112     30.145    209.213    215.900   -176.524    110.119      0.229     99.095    110.119     99.095    219.988    198.190     10.188      3.166  -2987.467     62.360 
  3330.200      2.162     10.041     68.537     30.361    209.116    215.900   -178.724    110.119      0.219     98.997    110.119     98.997    219.745    197.994     10.181      3.164  -2987.645     62.355 
  3330.400      2.118      9.600     72.865     30.525    208.310    215.900   -180.606    109.399      0.229     98.912    109.399     98.912    219.468    197.823     10.174      3.162  -2987.823     62.353 
  3330.600      2.279      9.766     76.138     30.525    208.664    215.900   -182.349    109.837      0.229     98.826    109.837     98.826    219.141    197.653     10.167      3.160  -2988.001     62.351 
  3330.800      2.492      9.320     80.735     30.525    209.709    215.900   -184.088    109.267      0.227    100.442    109.267    100.442    218.735    200.884     10.161      3.158  -2988.180     62.351 
  3331.000      2.142     10.115     87.366     30.484    208.046    215.900   -185.848    109.236      0.229     98.810    109.236     98.810    218.191    197.619     10.154      3.156  -2988.358     62.353 
  3331.200      2.087     10.618     94.229     30.263    208.767    215.900   -187.651    109.564      0.229     99.202    109.564     99.202    217.451    198.405     10.147      3.154  -2988.536     62.353 
  3331.400      2.085     11.019    100.068     30.047    208.631    215.900   -189.506    109.021      0.225     99.610    109.021     99.610    216.478    199.220     10.140      3.152  -2988.715     62.349 
  3331.600      2.014     11.489    106.166     29.696    206.859    215.900   -189.452    107.981      0.229     98.877    107.981     98.877    215.246    197.755     10.133      3.151  -2988.893     62.359 
  3331.800      2.319     12.439    110.459     29.455    205.941    215.900   -191.370    106.906      0.227     99.035    106.906     99.035    213.753    198.070     10.126      3.149  -2989.071     62.371 
  3332.000      2.905     12.895    111.811     29.347    204.956    215.900   -192.329    105.884      0.229     99.072    105.884     99.072    212.024    198.144     10.120      3.147  -2989.249     62.387 
  3332.200      3.429     12.695    112.931     29.193    204.858    215.900   -194.247    105.491      0.222     99.367    105.491     99.367    210.060    198.733     10.113      3.146  -2989.427     62.411 
  3332.400      3.667     11.666    114.867     28.960    208.538    215.900   -194.247    105.519      0.229    103.019    105.519    103.019    207.976    206.038     10.107      3.144  -2989.606     62.436 
  3332.600      3.963     11.106    117.636     28.886    203.143    215.900   -194.247    102.117      0.229    101.026    102.117    101.026    205.861    202.052     10.100      3.142  -2989.784     62.465 
  3332.800      3.606     10.003    119.532     28.886    203.692    215.900   -194.247    101.516      0.229    102.176    101.516    102.176    203.823    204.352     10.093      3.141  -2989.962     62.498 
  3333.000      2.797      9.747    121.283     28.886    203.046    215.900   -194.247     99.941      0.229    103.104     99.941    103.104    201.967    206.209     10.087      3.139  -2990.140     62.532 
  3333.200      2.630      9.880    124.032     28.886    202.996    215.900   -194.247     99.368      0.229    103.628     99.368    103.628    200.408    207.255     10.080      3.138  -2990.319     62.555 
  3333.400      2.372     10.334    126.959     28.830    202.912    215.900   -195.205     98.993      0.220    103.920     98.993    103.920    199.103    207.839     10.074      3.136  -2990.497     62.591 
  3333.600      2.318     10.593    129.480     28.681    205.141    215.900   -195.205     99.498      0.219    105.643     99.498    105.643    198.058    211.286     10.067      3.135  -2990.675     62.625 
  3333.800      2.313     10.874    131.013     28.656    204.710    215.900   -195.205     98.577      0.229    106.133     98.577    106.133    197.246    212.266     10.061      3.133  -2990.853     62.655 
  3334.000      2.377     11.059    132.173     28.506    205.680    215.900   -195.205     98.223      0.229    107.457     98.223    107.457    196.690    214.915     10.054      3.131  -2991.032     62.677 
  3334.200      2.675     11.556    133.688     28.397    205.629    215.900   -195.205     97.702      0.222    107.926     97.702    107.926    196.372    215.853     10.048      3.130  -2991.210     62.698 
  3334.400      3.015     11.251    135.816     28.067    204.923    215.900   -195.205     96.635      0.226    108.288     96.635    108.288    196.303    216.576     10.041      3.128  -2991.388     62.713 
  3334.600      3.459     11.114    138.091     27.936    206.596    215.900   -195.205     97.470      0.219    109.126     97.470    109.126    196.425    218.253     10.034      3.126  -2991.566     62.721 
  3334.800      3.521     11.242    137.796     27.755    207.751    215.900   -195.205     98.425      0.229    109.326     98.425    109.326    196.671    218.652     10.028      3.125  -2991.744     62.719 
  3335.000      3.352     12.469    133.012     27.592    208.838    215.900   -195.205     99.090      0.228    109.749     99.090    109.749    196.841    219.498     10.021      3.123  -2991.923     62.707 
  3335.200      3.602     13.817    129.500     27.452    212.437    215.900   -195.205    101.896      0.229    110.542    101.896    110.542    196.932    221.084     10.014      3.121  -2992.101     62.699 
  3335.400      4.154     14.439    129.392     27.247    209.494    215.900   -191.370     97.279      0.229    112.215     97.279    112.215    196.987    224.430     10.007      3.119  -2992.279     62.691 
  3335.600      3.935     14.010    130.435     27.089    209.398    215.900   -190.411     96.821      0.229    112.577     96.821    112.577    197.086    225.154     10.000      3.117  -2992.457     62.669 
  3335.800      3.347     13.820    129.572     26.965    209.944    215.900   -188.493     97.367      0.229    112.577     97.367    112.577    197.324    225.154      9.993      3.115  -2992.636     62.659 
  3336.000      3.568     13.706    127.352     26.755    211.850    215.900   -184.658     98.403      0.229    113.447     98.403    113.447    197.898    226.893      9.986      3.113  -2992.814     62.652 
  3336.200      4.038     14.386    125.747     26.547    213.508    215.900   -184.590     99.428      0.229    114.079     99.428    114.079    198.740    228.159      9.979      3.111  -2992.992     62.647 
  3336.400      4.241     14.408    124.024     26.411    215.093    215.900   -181.542    100.705      0.229    114.388    100.705    114.388    199.868    228.777      9.972      3.109  -2993.170     62.642 
  3336.600      4.340     14.322    122.061     26.260    214.198    215.900   -178.641    100.229      0.229    113.969    100.229    113.969    201.167    227.938      9.965      3.107  -2993.349     62.649 
  3336.800      4.253     13.515    118.562     26.223    214.377    215.900   -175.971    100.487      0.229    113.890    100.487    113.890    202.474    227.780      9.957      3.104  -2993.527     62.639 
  3337.000      4.279     13.366    114.061     26.223    215.902    215.900   -173.564    101.978      0.229    113.924    101.978    113.924    203.596    227.848      9.950      3.102  -2993.705     62.639 
  3337.200      4.559     13.079    109.924     26.377    216.686    215.900   -171.466    102.717      0.229    113.969    102.717    113.969    204.472    227.938      9.943      3.100  -2993.883     62.636 
