~Version Information
#-------------------
VERS.        2.0: CWLS log ASCII Standart - VERSION 2.0
WRAP.         NO: One line per depth step
~Well Information Block
#----------------------
#MNEM.UNIT  VALUE: DESCRIPTION
#----.---- -------: -------------
STRT.м                            3615: Начальная глубина
STOP.м                            3296: Конечная глубина
STEP.м                            -0.2: Шаг квантования
NULL.                        -9999.999: Код отсутствия
COMP.                  ООО LUKOIL-Komi: Название организации
WELL.                              134: Наименование скважины
FLD .                        Tedinskoe: Наименование площади
LOC .                                 : Расположение скважины
CTRY.                                 : Название страны
SRVC.                             PNGG: Наим.орг-ции, проводившей каротаж
DATE.                         12-08-08: Дата регистрации каротажных данных
UWI .                                 : Уникальный идентификатор скважины
~Parameter Information
#---------------------
#MNEM.UNIT  VALUE: DESCRIPTION
#----.---- -------: ---------------
~Curve Information Block
#-----------------------
#MNEM   .UNIT         : CURVE DESCRIPTION
#-------.----         : -----------------
DEPT    .м            : Колонка глубины
GK_spek .imp          : Гамма каротаж по СГК
K       .             : Содержание калия
U       .ppm          : Содержание урана
TH      .ppm          : Содержание тория
THU     .otn.ed       : Отношение TH/U
UK      .ppm          : Отношение U/K
THK     .ppm          : Отношение TH/K
АбсОтмкр.м            : Абс.отметки ПНГГ
qсгк    .             : Двойной разностной параметр по СГК
~Other Information
#-----------------
~Ascii Log Data
# ...
  3410.600   1677.422      1.497      0.781      1.329      2.862      0.593      0.957  -3058.638      0.161 
  3410.400   1609.490      1.337      0.804      1.197      2.958      0.637      0.988  -3058.463      0.151 
  3410.200   1517.519      1.183      0.859      0.827      1.770      0.721      0.778  -3058.289      0.138 
  3410.000   1090.063      1.026      0.465      0.805      2.220      0.498      0.886  -3058.115      0.076 
  3409.800    925.978      0.959      0.620      0.607      1.443      0.734      0.707  -3057.941      0.053 
  3409.600   1024.220      0.929      0.544      0.795      2.298      0.680      0.923  -3057.766      0.067 
  3409.400   1020.039      0.967      0.555      0.789      2.150      0.661      0.884  -3057.591      0.066 
  3409.200    967.783      1.153      0.485      0.892      2.178      0.469      0.899  -3057.417      0.059 
  3409.000   1125.597      1.225      0.448      0.830      1.979      0.403      0.771  -3057.242      0.081 
  3408.800   1072.296      1.266      0.234      1.084      3.286      0.221      0.958  -3057.068      0.074 
  3408.600    976.144      1.116      0.366      0.901      3.033      0.485      0.839  -3056.893      0.060 
  3408.400    966.738      1.059      0.417      0.763      2.582      0.581      0.754  -3056.719      0.058 
  3408.200    950.016      1.038      0.312      0.769      2.592      0.461      0.805  -3056.544      0.056 
  3408.000   1009.588      1.121      0.117      0.878      2.843      0.184      0.865  -3056.370      0.065 
  3407.800   1039.897      1.075      0.156      0.915      2.937      0.213      0.998  -3056.195      0.069 
  3407.600   1005.408      1.002      0.222      0.799      2.530      0.268      0.955  -3056.021      0.064 
  3407.400    966.738      0.999      0.300      0.578      1.889      0.347      0.732  -3055.846      0.058 
  3407.200    987.641      1.097      0.419      0.323      0.993      0.425      0.351  -3055.671      0.061 
  3407.000    929.114      1.087      0.410      0.616      1.742      0.424      0.679  -3055.497      0.053 
  3406.800    904.031      0.989      0.408      0.761      1.987      0.482      0.861  -3055.322      0.049 
  3406.600    985.550      0.938      0.580      0.580      1.250      0.682      0.696  -3055.148      0.061 
  3406.400   1063.935      0.968      0.797      0.586      0.717      0.910      0.683  -3054.973      0.072 
  3406.200   1051.394      0.961      0.897      0.549      0.600      1.049      0.653  -3054.799      0.071 
  3406.000   1106.785      0.938      0.879      0.549      0.625      1.054      0.659  -3054.624      0.079 
  3405.800    946.881      0.951      0.696      0.293      0.397      0.821      0.374  -3054.450      0.056 
  3405.600    878.948      1.008      0.505      0.549      1.268      0.554      0.616  -3054.275      0.046 
  3405.400    899.850      1.107      0.312      0.543      1.676      0.323      0.569  -3054.101      0.049 
  3405.200    844.459      1.115      0.427      0.578      1.578      0.476      0.593  -3053.926      0.041 
  3405.000    937.475      1.027      0.380      0.360      0.900      0.481      0.405  -3053.752      0.054 
  3404.800    980.325      0.899      0.394      0.256      0.659      0.541      0.348  -3053.577      0.060 
  3404.600    904.031      0.908      0.419      0.110      0.436      0.550      0.204  -3053.402      0.049 
  3404.400    875.813      0.930      0.533      0.110      0.402      0.647      0.195  -3053.228      0.045 
  3404.200    899.850      0.956      0.337      0.476      1.571      0.428      0.583  -3053.053      0.049 
  3404.000    847.594      0.972      0.272      0.647      1.967      0.346      0.750  -3052.879      0.041 
  3403.800    876.858      0.914      0.366      0.680      1.810      0.490      0.860  -3052.704      0.045 
  3403.600    862.226      0.899      0.595      0.391      0.847      0.739      0.576  -3052.530      0.043 
  3403.400    987.641      0.951      0.552      0.769      2.266      0.664      0.917  -3052.355      0.061 
  3403.200    958.377      1.077      0.583      0.952      2.657      0.608      0.972  -3052.181      0.057 
  3403.000   1006.453      0.981      0.740      0.842      2.178      1.032      0.859  -3052.006      0.064 
  3402.800    884.174      0.964      0.888      0.220      0.375      1.266      0.279  -3051.832      0.046 
  3402.600    978.235      0.955      0.921      0.000      0.100      1.265      0.100  -3051.657      0.060 
  3402.400    999.137      1.057      0.709      0.110      0.375      0.776      0.183  -3051.482      0.063 
  3402.200   1076.476      0.947      0.655      0.366      0.754      0.812      0.496  -3051.308      0.074 
  3402.000    988.686      0.929      0.697      0.403      0.759      0.870      0.563  -3051.133      0.062 
  3401.800    883.128      1.001      0.716      0.549      1.427      0.861      0.639  -3050.959      0.046 
  3401.600   1014.814      1.133      0.501      0.769      2.554      0.532      0.726  -3050.784      0.065 
  3401.400   1056.619      1.134      0.457      0.878      2.652      0.471      0.828  -3050.610      0.071 
  3401.200   1041.988      0.938      0.962      0.476      1.286      1.432      0.509  -3050.435      0.069 
  3401.000    978.234      0.884      1.152      0.208      0.330      1.762      0.262  -3050.261      0.060 
  3400.800    895.670      0.932      0.855      0.131      0.288      1.301      0.194  -3050.086      0.048 
  3400.600    985.551      1.110      0.512      0.197      0.352      0.498      0.225  -3049.912      0.061 
  3400.400    977.190      1.049      0.582      0.241      0.378      0.643      0.301  -3049.737      0.060 
  3400.200    974.054      0.969      0.702      0.453      0.640      0.845      0.553  -3049.562      0.059 
  3400.000    975.099      1.048      0.721      0.497      0.688      0.819      0.580  -3049.388      0.060 
  3399.800   1079.612      1.213      0.517      0.892      2.274      0.515      0.873  -3049.213      0.075 
  3399.600   1026.310      1.106      0.300      1.035      3.229      0.336      1.130  -3049.038      0.067 
  3399.400    970.919      0.940      0.216      0.908      2.957      0.326      1.097  -3048.863      0.059 
  3399.200   1076.477      1.026      0.276      0.644      2.056      0.328      0.756  -3048.687      0.074 
  3399.000   1199.801      1.224      0.411      0.729      1.910      0.370      0.631  -3048.512      0.092 
  3398.800   1338.802      1.317      0.753      0.918      1.654      0.607      0.751  -3048.337      0.112 
  3398.600   1796.567      1.537      1.230      1.295      1.018      0.851      0.857  -3048.162      0.178 
  3398.400   2614.897      1.838      1.078      2.491      5.133      0.663      1.364  -3047.987      0.296 
  3398.200   2804.064      1.992      0.580      3.364      9.437      0.321      1.769  -3047.812      0.324 
  3398.000   2508.295      1.916      0.205      3.220     10.494      0.131      1.750  -3047.637      0.281 
  3397.800   1929.297      1.838      0.406      2.133      6.114      0.245      1.224  -3047.462      0.197 
  3397.600   1704.595      1.707      0.544      1.503      3.423      0.336      0.951  -3047.286      0.165 
  3397.400   1715.046      1.536      0.660      1.337      2.282      0.465      0.964  -3047.111      0.166 
  3397.200   1797.611      1.356      0.864      1.644      2.173      0.701      1.320  -3046.936      0.178 
  3397.000   1924.071      1.286      0.896      2.029      3.141      0.749      1.729  -3046.761      0.197 
  3396.800   1762.078      1.363      0.548      2.395      5.647      0.499      1.926  -3046.586      0.173 
  3396.600   1600.083      1.314      0.113      2.176      6.741      0.171      1.802  -3046.411      0.150 
  3396.400   1092.153      1.352      0.094      1.863      6.123      0.135      1.501  -3046.236      0.076 
  3396.200   1299.088      1.324      0.443      1.796      4.336      0.371      1.492  -3046.060      0.106 
