~Version Information
#-------------------
VERS.        2.0: CWLS log ASCII Standart - VERSION 2.0
WRAP.         NO: One line per depth step
~Well Information Block
#----------------------
#MNEM.UNIT  VALUE: DESCRIPTION
#----.---- -------: -------------
STRT.м                            3615: Начальная глубина
STOP.м                            3296: Конечная глубина
STEP.м                            -0.2: Шаг квантования
NULL.                        -9999.999: Код отсутствия
COMP.                  ООО LUKOIL-Komi: Название организации
WELL.                              134: Наименование скважины
FLD .                        Tedinskoe: Наименование площади
LOC .                                 : Расположение скважины
CTRY.                                 : Название страны
SRVC.                             PNGG: Наим.орг-ции, проводившей каротаж
DATE.                         12-08-08: Дата регистрации каротажных данных
UWI .                                 : Уникальный идентификатор скважины
~Parameter Information
#---------------------
#MNEM.UNIT  VALUE: DESCRIPTION
#----.---- -------: ---------------
~Curve Information Block
#-----------------------
#MNEM   .UNIT         : CURVE DESCRIPTION
#-------.----         : -----------------
DEPT    .м            : Колонка глубины
GK_spek .imp          : Гамма каротаж по СГК
K       .             : Содержание калия
U       .ppm          : Содержание урана
TH      .ppm          : Содержание тория
THU     .otn.ed       : Отношение TH/U
UK      .ppm          : Отношение U/K
THK     .ppm          : Отношение TH/K
АбсОтмкр.м            : Абс.отметки ПНГГ
qсгк    .             : Двойной разностной параметр по СГК
~Other Information
#-----------------
~Ascii Log Data
# ...
  3512.800    940.610      0.784      0.490      0.445      1.006      0.645      0.584  -3146.327      0.055 
  3512.600    940.610      0.686      0.497      0.362      1.053      0.817      0.532  -3146.157      0.055 
  3512.400   1029.446      0.675      0.708      0.299      0.785      1.132      0.456  -3145.987      0.067 
  3512.200   1044.078      0.685      0.799      0.146      0.214      1.207      0.277  -3145.817      0.070 
  3512.000   1072.296      0.753      0.705      0.513      0.582      0.946      0.692  -3145.647      0.074 
  3511.800   1161.132      0.752      1.006      0.647      0.661      1.403      0.851  -3145.477      0.086 
  3511.600   1186.214      0.710      1.123      0.659      0.748      1.628      0.877  -3145.307      0.090 
  3511.400    971.964      0.717      0.748      0.476      1.112      1.127      0.647  -3145.138      0.059 
  3511.200    881.038      0.803      0.397      0.403      1.244      0.501      0.542  -3144.968      0.046 
  3511.000    908.211      0.842      0.723      0.220      0.802      0.875      0.332  -3144.798      0.050 
  3510.800    916.572      0.860      1.048      0.220      0.292      1.242      0.307  -3144.628      0.051 
  3510.600    877.903      0.748      1.042      0.403      0.464      1.457      0.582  -3144.458      0.046 
  3510.400    784.887      0.650      0.855      0.366      0.435      1.395      0.581  -3144.288      0.032 
  3510.200    713.819      0.591      0.677      0.329      0.735      1.205      0.599  -3144.118      0.022 
  3510.000    798.474      0.769      0.397      0.512      1.505      0.647      0.672  -3143.948      0.034 
  3509.800    737.856      0.880      0.612      0.622      1.601      0.781      0.731  -3143.778      0.025 
  3509.600    802.654      0.909      0.658      0.586      1.553      0.817      0.643  -3143.609      0.035 
  3509.400    823.557      0.850      0.895      0.403      1.073      1.079      0.507  -3143.440      0.038 
  3509.200    807.880      0.857      0.856      0.403      0.944      1.021      0.510  -3143.270      0.035 
  3509.000    823.557      0.789      1.140      0.354      0.364      1.475      0.490  -3143.101      0.038 
  3508.800    780.706      0.835      0.736      0.549      1.044      1.087      0.652  -3142.931      0.032 
  3508.600    846.549      0.856      0.414      0.512      1.402      0.691      0.589  -3142.762      0.041 
  3508.400    804.744      0.822      0.406      0.366      1.189      0.663      0.415  -3142.592      0.035 
  3508.200    713.819      0.724      0.581      0.439      1.190      0.885      0.570  -3142.423      0.022 
  3508.000    748.308      0.697      0.648      0.659      1.435      1.006      0.909  -3142.253      0.027 
  3507.800    673.059      0.728      0.474      0.732      1.595      0.698      1.011  -3142.084      0.016 
  3507.600    660.517      0.744      0.334      0.476      1.154      0.501      0.678  -3141.915      0.014 
  3507.400    674.104      0.842      0.268      0.476      1.255      0.310      0.557  -3141.745      0.016 
  3507.200    876.858      0.865      0.594      0.403      0.930      0.696      0.480  -3141.576      0.045 
  3507.000    817.286      0.874      0.690      0.220      0.471      0.813      0.311  -3141.406      0.037 
  3506.800    730.541      0.887      0.465      0.220      0.802      0.552      0.307  -3141.237      0.024 
  3506.600    751.443      0.913      0.280      0.512      1.393      0.309      0.590  -3141.067      0.027 
  3506.400    761.894      0.828      0.475      0.732      1.553      0.629      0.910  -3140.898      0.029 
  3506.200   1049.303      0.843      0.519      0.732      1.525      0.702      0.913  -3140.728      0.070 
  3506.000   1036.762      0.872      0.338      0.836      2.359      0.466      1.002  -3140.559      0.068 
  3505.800    808.925      0.829      0.395      0.761      2.287      0.621      0.908  -3140.390      0.036 
  3505.600    674.104      0.693      0.550      0.470      1.265      0.906      0.671  -3140.220      0.016 
  3505.400    634.390      0.642      0.568      0.214      0.448      0.924      0.401  -3140.051      0.010 
  3505.200    713.819      0.766      0.418      0.138      0.447      0.556      0.279  -3139.881      0.022 
  3505.000    851.775      0.811      0.293      0.214      0.696      0.385      0.353  -3139.712      0.042 
  3504.800    729.495      0.811      0.275      0.146      0.548      0.369      0.258  -3139.542      0.024 
  3504.600    697.097      0.649      0.393      0.220      0.561      0.736      0.424  -3139.373      0.019 
  3504.400    751.443      0.668      0.736      0.146      0.267      1.151      0.373  -3139.203      0.027 
  3504.200    910.302      0.646      0.875      0.110      0.225      1.406      0.305  -3139.034      0.050 
  3504.000    936.430      0.747      0.877      0.000      0.100      1.250      0.100  -3138.865      0.054 
  3503.800    984.505      0.704      0.923      0.104      0.155      1.422      0.242  -3138.695      0.061 
  3503.600    962.558      0.753      1.110      0.138      0.174      1.559      0.289  -3138.526      0.058 
  3503.400   1005.408      0.683      1.191      0.323      0.336      1.756      0.555  -3138.356      0.064 
  3503.200    989.731      0.680      1.194      0.403      0.395      1.759      0.659  -3138.187      0.062 
  3503.000    951.061      0.719      1.126      0.470      0.429      1.625      0.687  -3138.017      0.056 
  3502.800   1114.101      0.821      0.891      0.462      0.800      1.166      0.564  -3137.848      0.080 
  3502.600   1119.326      0.890      0.548      0.718      1.796      0.613      0.810  -3137.678      0.080 
  3502.400   1125.597      0.803      0.434      0.970      2.336      0.579      1.255  -3137.509      0.081 
  3502.200   1188.305      0.767      0.618      0.862      1.752      0.827      1.189  -3137.340      0.090 
  3502.000   1167.402      0.822      0.609      0.683      1.423      0.782      0.909  -3137.170      0.087 
  3501.800   1099.469      0.920      0.480      0.952      2.475      0.540      1.033  -3137.001      0.078 
  3501.600   1104.695      0.913      0.493      1.281      2.939      0.556      1.416  -3136.831      0.078 
  3501.400   1110.965      0.846      0.755      1.098      1.989      0.910      1.261  -3136.662      0.079 
  3501.200   1092.154      0.872      0.737      0.774      1.450      0.890      0.867  -3136.492      0.076 
  3501.000   1186.215      0.920      0.583      0.837      1.914      0.676      0.885  -3136.323      0.090 
  3500.800   1095.289      0.953      0.330      1.287      3.508      0.374      1.365  -3136.153      0.077 
  3500.600   1078.566      0.891      0.469      1.141      3.087      0.587      1.252  -3135.984      0.075 
  3500.400   1173.673      0.907      0.393      1.252      3.928      0.540      1.317  -3135.815      0.088 
  3500.200   1266.689      0.810      0.575      1.095      2.970      0.934      1.297  -3135.645      0.102 
  3500.000   1154.861      0.688      0.536      1.298      3.059      1.024      1.853  -3135.476      0.086 
  3499.800   1115.146      0.673      0.799      0.983      1.459      1.227      1.594  -3135.306      0.080 
  3499.600   1107.830      0.809      0.708      0.701      1.075      0.872      1.046  -3135.137      0.079 
  3499.400   1177.854      0.848      0.729      0.329      0.397      0.860      0.419  -3134.967      0.089 
  3499.200   1119.326      0.840      0.566      0.256      0.520      0.706      0.342  -3134.798      0.080 
  3499.000   1083.793      0.884      0.672      0.524      0.822      0.783      0.590  -3134.628      0.075 
  3498.800   1100.515      0.814      0.811      0.577      0.778      1.137      0.711  -3134.459      0.078 
  3498.600   1047.213      0.783      0.711      0.744      1.514      1.151      0.904  -3134.289      0.070 
  3498.400    997.047      0.754      0.566      0.659      1.700      1.018      0.818  -3134.120      0.063 
