~Version Information
#-------------------
VERS.        2.0: CWLS log ASCII Standart - VERSION 2.0
WRAP.         NO: One line per depth step
~Well Information Block
#----------------------
#MNEM.UNIT  VALUE: DESCRIPTION
#----.---- -------: -------------
STRT.м                          2167.4: Начальная глубина
STOP.м                            3615: Конечная глубина
STEP.м                             0.2: Шаг квантования
NULL.                         -9999.99: Код отсутствия
COMP.                  ООО LUKOIL-Komi: Название организации
WELL.                              134: Наименование скважины
FLD .                        Tedinskoe: Наименование площади
LOC .                                 : Расположение скважины
CTRY.                                 : Название страны
SRVC.                             PNGG: Наим.орг-ции, проводившей каротаж
DATE.                        10.08.08 : Дата регистрации каротажных данных
UWI .                                 : Уникальный идентификатор скважины
~Parameter Information
#---------------------
#MNEM.UNIT  VALUE: DESCRIPTION
#----.---- -------: ---------------
BS  .м      0.22: Диаметр долота
~Curve Information Block
#-----------------------
#MNEM   .UNIT          : CURVE DESCRIPTION
#-------.----          : -----------------
DEPT    .m             : Колонка глубины
GR      .ur/hr         : Гамма каротаж
IK      .msm/m         : Индукционный каротаж аппаратурой АИК-5 (активная составляющая)
GZ4     .Omm           : Градиент-зонд  длиной 4.5м
PZ      .Omm           : Потенциал-зонд A0.5M6.5N
DS      .mm            : Каверномер
BS      .mm            : Номинальный диаметр 215.9мм
PS      .mV            : Потенциал самополяризации
RRA1    .mm            : Радиус1
RRB_1   .Omm           : Резистивиметр
RRA2    .mm            : Радиус2
RRA3    .mm            : Радиус3
RRA4    .mm            : Радиус4
C1      .mm            : Профиль1
C2      .mm            : Профиль2
PEF     .m3            : Суммарный объем скважины
PEF     .m3            : Объем затрубья
АбсОтмкр.m             : Абсолютные отметки ПНГГ
TEMP    .grad          : Температура
~Other Information
#-----------------
tool=СРК
mode=ННКт
id=59
tool=АИК-5
mode=Основной
id=42
tool=ЭК-1
mode=БК
id=5
tool=ЭК-1
mode=БКЗ
id=5
tool=ИНС-60
mode=Основной
id=260


~Ascii Log Data
# ...
  3516.800      1.645     25.447     16.705     18.110    206.139    215.900     16.499    101.013      0.209    105.126    101.013    105.126    202.028    210.252      3.252      0.878  -3149.726     67.680 
  3517.000      1.450     24.642     18.213     18.760    206.245    215.900     17.366    101.338      0.209    104.907    101.338    104.907    202.270    209.814      3.246      0.877  -3149.896     67.685 
  3517.200      1.549     24.295     20.431     19.053    205.833    215.900     18.129    100.926      0.209    104.907    100.926    104.907    202.510    209.814      3.239      0.875  -3150.066     67.686 
  3517.400      1.410     26.196     23.255     19.257    205.369    215.900     18.429    100.462      0.209    104.907    100.462    104.907    202.633    209.814      3.232      0.873  -3150.236     67.686 
  3517.600      1.515     27.900     26.671     19.300    208.546    215.900     18.042    103.639      0.219    104.907    103.639    104.907    202.649    209.814      3.226      0.871  -3150.406     67.684 
  3517.800      1.476     28.680     30.709     19.211    205.478    215.900     17.062    100.871      0.211    104.607    100.871    104.607    202.551    209.214      3.219      0.870  -3150.576     67.684 
  3518.000      1.380     28.774     35.637     18.950    207.028    215.900     15.866    101.544      0.209    105.484    101.544    105.484    202.350    210.969      3.212      0.868  -3150.746     67.683 
  3518.200      1.589     29.616     40.812     18.504    205.836    215.900     14.921    100.833      0.219    105.003    100.833    105.003    202.064    210.006      3.205      0.866  -3150.916     67.689 
  3518.400      1.396     31.526     44.716     17.957    204.169    215.900     14.604    100.138      0.221    104.031    100.138    104.031    201.832    208.061      3.199      0.865  -3151.086     67.697 
  3518.600      1.213     32.517     46.924     17.379    204.709    215.900     15.055    100.678      0.229    104.031    100.678    104.031    201.668    208.061      3.192      0.863  -3151.256     67.701 
  3518.800      1.280     32.681     47.682     17.022    205.008    215.900     16.162    100.819      0.238    104.189    100.819    104.189    201.613    208.377      3.186      0.861  -3151.426     67.705 
  3519.000      1.186     32.726     46.823     16.776    205.205    215.900     17.618    100.819      0.239    104.386    100.819    104.386    201.681    208.773      3.179      0.860  -3151.596     67.713 
  3519.200      1.451     32.976     45.130     16.594    205.025    215.900     19.103    100.819      0.237    104.206    100.819    104.206    201.864    208.412      3.172      0.858  -3151.765     67.713 
  3519.400      1.532     32.088     44.436     16.674    204.850    215.900     20.401    100.819      0.241    104.031    100.819    104.031    202.171    208.061      3.166      0.856  -3151.936     67.717 
  3519.600      1.270     30.294     43.284     16.939    204.851    215.900     21.494    100.820      0.239    104.031    100.820    104.031    202.603    208.061      3.159      0.855  -3152.105     67.721 
  3519.800      1.257     27.903     41.876     17.345    205.133    215.900     22.499    101.748      0.227    103.385    101.748    103.385    203.120    206.771      3.153      0.853  -3152.275     67.728 
  3520.000      1.303     27.076     42.134     17.811    205.121    215.900     23.580    101.748      0.212    103.373    101.748    103.373    203.738    206.747      3.146      0.852  -3152.445     67.740 
  3520.200      1.554     27.151     43.954     18.382    205.479    215.900     24.792    101.748      0.219    103.732    101.748    103.732    204.446    207.463      3.139      0.850  -3152.616     67.747 
  3520.400      1.509     25.467     46.443     18.871    205.172    215.900     26.047    102.008      0.223    103.164    102.008    103.164    205.096    206.328      3.133      0.848  -3152.787     67.753 
  3520.600      1.309     24.032     49.482     19.292    207.748    215.900     27.163    104.620      0.226    103.129    104.620    103.129    205.627    206.257      3.126      0.847  -3152.957     67.760 
  3520.800      1.494     23.045     52.816     19.667    206.813    215.900     28.023    103.768      0.229    103.045    103.768    103.045    206.075    206.090      3.119      0.845  -3153.128     67.769 
  3521.000      1.559     24.601     56.569     19.795    205.495    215.900     28.618    101.748      0.227    103.747    101.748    103.747    206.335    207.495      3.113      0.843  -3153.299     67.768 
  3521.200      1.645     25.960     60.200     19.752    207.982    215.900     29.074    104.683      0.219    103.299    104.683    103.299    206.400    206.597      3.106      0.842  -3153.469     67.777 
  3521.400      1.411     27.980     63.818     19.541    205.681    215.900     29.507    102.957      0.229    102.725    102.957    102.725    206.398    205.450      3.099      0.840  -3153.640     67.786 
  3521.600      1.269     30.204     64.963     19.155    205.415    215.900     30.033    102.878      0.224    102.538    102.878    102.538    206.384    205.075      3.093      0.838  -3153.811     67.792 
  3521.800      1.247     32.140     64.387     18.848    205.483    215.900     30.669    103.061      0.209    102.422    103.061    102.422    206.315    204.845      3.086      0.836  -3153.981     67.801 
  3522.000      1.419     34.554     63.772     18.587    204.456    215.900     31.415    103.061      0.209    101.395    103.061    101.395    206.311    202.790      3.079      0.835  -3154.152     67.813 
  3522.200      1.159     36.811     63.772     18.318    205.483    215.900     32.194    103.061      0.209    102.422    103.061    102.422    206.388    204.845      3.073      0.833  -3154.323     67.823 
  3522.400      1.220     37.927     63.747     18.062    205.694    215.900     32.940    103.272      0.209    102.422    103.272    102.422    206.523    204.845      3.066      0.831  -3154.493     67.836 
  3522.600      1.231     37.364     64.235     17.703    205.904    215.900     33.592    103.509      0.206    102.396    103.509    102.396    206.717    204.792      3.059      0.830  -3154.664     67.846 
  3522.800      1.328     38.826     65.307     17.229    205.375    215.900     34.160    103.099      0.209    102.276    103.099    102.276    207.014    204.553      3.053      0.828  -3154.835     67.858 
  3523.000      1.313     40.922     65.448     16.820    205.164    215.900     34.671    103.078      0.219    102.086    103.078    102.086    207.364    204.173      3.046      0.826  -3155.005     67.875 
  3523.200      1.265     43.094     66.710     16.097    207.135    215.900     35.106    104.268      0.212    102.867    104.268    102.867    207.794    205.734      3.040      0.825  -3155.176     67.889 
  3523.400      1.345     44.890     69.111     15.290    207.141    215.900     35.391    103.991      0.210    103.150    103.991    103.150    208.307    206.300      3.033      0.823  -3155.347     67.903 
  3523.600      1.499     48.748     69.780     14.579    206.805    215.900     35.485    105.064      0.219    101.741    105.064    101.741    208.935    203.482      3.026      0.821  -3155.517     67.922 
  3523.800      1.474     52.919     66.947     13.912    205.854    215.900     35.490    103.990      0.209    101.864    103.990    101.864    209.682    203.729      3.019      0.820  -3155.688     67.933 
  3524.000      1.398     55.336     64.218     13.521    205.381    215.900     35.586    104.506      0.204    100.876    104.506    100.876    210.577    201.751      3.013      0.818  -3155.859     67.939 
  3524.200      1.183     56.760     62.292     13.195    206.090    215.900     35.820    105.228      0.199    100.861    105.228    100.861    211.568    201.723      3.006      0.816  -3156.029     67.946 
  3524.400      1.091     57.560     60.750     12.972    208.176    215.900     36.031    106.776      0.199    101.400    106.776    101.400    212.596    202.799      2.999      0.815  -3156.200     67.948 
