~Version Information
#-------------------
VERS.        2.0: CWLS log ASCII Standart - VERSION 2.0
WRAP.         NO: One line per depth step
~Well Information Block
#----------------------
#MNEM.UNIT  VALUE: DESCRIPTION
#----.---- -------: -------------
STRT.м                            3615: Начальная глубина
STOP.м                            3296: Конечная глубина
STEP.м                            -0.2: Шаг квантования
NULL.                        -9999.999: Код отсутствия
COMP.                  ООО LUKOIL-Komi: Название организации
WELL.                              134: Наименование скважины
FLD .                        Tedinskoe: Наименование площади
LOC .                                 : Расположение скважины
CTRY.                                 : Название страны
SRVC.                             PNGG: Наим.орг-ции, проводившей каротаж
DATE.                         12-08-08: Дата регистрации каротажных данных
UWI .                                 : Уникальный идентификатор скважины
~Parameter Information
#---------------------
#MNEM.UNIT  VALUE: DESCRIPTION
#----.---- -------: ---------------
~Curve Information Block
#-----------------------
#MNEM   .UNIT         : CURVE DESCRIPTION
#-------.----         : -----------------
DEPT    .м            : Колонка глубины
GK_spek .imp          : Гамма каротаж по СГК
K       .             : Содержание калия
U       .ppm          : Содержание урана
TH      .ppm          : Содержание тория
THU     .otn.ed       : Отношение TH/U
UK      .ppm          : Отношение U/K
THK     .ppm          : Отношение TH/K
АбсОтмкр.м            : Абс.отметки ПНГГ
qсгк    .             : Двойной разностной параметр по СГК
~Other Information
#-----------------
~Ascii Log Data
# ...
  3527.400    556.005      0.732      0.108      0.403      1.372      0.165      0.692  -3158.760      0.000 
  3527.200    609.306      0.811      0.203      0.329      1.077      0.253      0.550  -3158.589      0.007 
  3527.000    595.720      0.824      0.287      0.146      0.466      0.352      0.224  -3158.419      0.005 
  3526.800    597.810      0.746      0.203      0.324      1.058      0.304      0.443  -3158.248      0.005 
  3526.600    596.765      0.673      0.179      0.395      1.286      0.334      0.586  -3158.077      0.005 
  3526.400    580.043      0.650      0.206      0.361      1.150      0.374      0.553  -3157.907      0.003 
  3526.200    598.855      0.653      0.191      0.220      0.711      0.348      0.364  -3157.736      0.005 
  3526.000    610.352      0.695      0.117      0.256      0.884      0.224      0.380  -3157.565      0.007 
  3525.800    612.442      0.771      0.233      0.256      0.884      0.319      0.386  -3157.395      0.007 
  3525.600    631.254      0.810      0.306      0.220      0.772      0.366      0.331  -3157.224      0.010 
  3525.400    574.817      0.748      0.531      0.146      0.548      0.897      0.234  -3157.053      0.002 
  3525.200    570.637      0.688      0.634      0.110      0.436      1.132      0.200  -3156.883      0.001 
  3525.000    552.870      0.729      0.547      0.329      1.168      0.970      0.446  -3156.712      0.000 
  3524.800    665.743      0.826      0.428      0.439      1.524      0.582      0.561  -3156.541      0.015 
  3524.600    598.855      0.836      0.345      0.549      1.870      0.500      0.669  -3156.371      0.005 
  3524.400    616.622      0.779      0.296      0.512      1.738      0.428      0.702  -3156.200      0.008 
  3524.200    606.171      0.763      0.318      0.512      1.738      0.441      0.729  -3156.029      0.006 
  3524.000    640.660      0.788      0.528      0.220      0.802      0.652      0.404  -3155.859      0.011 
  3523.800    608.261      0.807      0.508      0.000      0.100      0.623      0.100  -3155.688      0.007 
  3523.600    593.630      0.795      0.217      0.000      0.100      0.300      0.100  -3155.517      0.005 
  3523.400    623.938      0.750      0.126      0.110      0.436      0.221      0.226  -3155.347      0.009 
  3523.200    569.592      0.767      0.085      0.366      1.250      0.180      0.518  -3155.176      0.001 
  3523.000    605.126      0.814      0.064      0.622      2.074      0.160      0.757  -3155.005      0.006 
  3522.800    607.216      0.812      0.000      0.622      2.074      0.100      0.756  -3154.835      0.006 
  3522.600    577.953      0.777      0.000      0.586      1.952      0.100      0.740  -3154.664      0.002 
  3522.400    610.351      0.817      0.000      0.512      1.708      0.100      0.654  -3154.493      0.007 
  3522.200    616.622      0.842      0.116      0.366      1.250      0.254      0.453  -3154.323      0.008 
  3522.000    598.855      0.771      0.155      0.220      0.772      0.305      0.306  -3154.152      0.005 
  3521.800    605.126      0.648      0.285      0.146      0.548      0.495      0.276  -3153.981      0.006 
  3521.600    600.945      0.693      0.226      0.329      1.138      0.422      0.476  -3153.811      0.006 
  3521.400    627.074      0.747      0.277      0.403      1.311      0.447      0.533  -3153.640      0.009 
  3521.200    631.254      0.824      0.208      0.476      1.504      0.283      0.582  -3153.469      0.010 
  3521.000    687.691      0.807      0.416      0.256      0.823      0.542      0.334  -3153.299      0.018 
  3520.800    688.736      0.733      0.503      0.110      0.436      0.721      0.195  -3153.128      0.018 
  3520.600    695.006      0.639      0.413      0.304      1.084      0.653      0.575  -3152.957      0.019 
  3520.400    651.111      0.657      0.143      0.710      2.395      0.305      1.094  -3152.787      0.013 
  3520.200    670.968      0.720      0.188      0.820      2.540      0.317      1.170  -3152.616      0.016 
  3520.000    640.660      0.788      0.447      0.451      1.277      0.596      0.613  -3152.445      0.011 
  3519.800    673.059      0.747      0.521      0.110      0.245      0.678      0.214  -3152.275      0.016 
  3519.600    651.111      0.769      0.291      0.110      0.436      0.421      0.191  -3152.105      0.013 
  3519.400    693.961      0.770      0.205      0.146      0.548      0.337      0.221  -3151.936      0.019 
  3519.200    665.743      0.758      0.340      0.220      0.610      0.527      0.334  -3151.766      0.015 
  3519.000    722.180      0.758      0.422      0.256      0.668      0.598      0.377  -3151.596      0.023 
  3518.800    646.931      0.734      0.543      0.451      0.896      0.873      0.679  -3151.426      0.012 
  3518.600    679.330      0.735      0.711      0.369      0.669      1.101      0.615  -3151.256      0.017 
  3518.400    755.624      0.707      0.695      0.414      0.976      1.048      0.672  -3151.086      0.028 
  3518.200    789.068      0.708      0.569      0.403      1.153      0.854      0.604  -3150.916      0.033 
  3518.000    792.203      0.762      0.410      0.586      1.660      0.670      0.761  -3150.746      0.033 
  3517.800    845.504      0.763      0.343      0.732      2.221      0.557      1.011  -3150.576      0.041 
  3517.600    848.640      0.773      0.179      0.988      3.294      0.246      1.375  -3150.406      0.041 
  3517.400    866.406      0.741      0.443      0.853      2.644      0.547      1.234  -3150.236      0.044 
  3517.200    819.376      0.669      1.206      0.631      1.284      2.771      1.158  -3150.066      0.037 
  3517.000    936.430      0.645      1.638      0.525      0.348      3.739      1.088  -3149.896      0.054 
  3516.800    906.121      0.627      1.474      0.629      0.500      3.204      1.162  -3149.726      0.050 
  3516.600    922.843      0.728      0.997      0.550      0.554      1.368      0.761  -3149.556      0.052 
  3516.400    932.249      0.717      1.004      0.774      0.735      1.398      1.062  -3149.386      0.053 
  3516.200    913.437      0.698      1.027      0.994      0.939      1.476      1.427  -3149.216      0.051 
  3516.000    940.610      0.706      1.179      0.947      0.878      1.659      1.390  -3149.046      0.055 
  3515.800    987.641      0.683      1.243      0.665      0.605      1.807      1.047  -3148.876      0.061 
  3515.600    945.836      0.656      1.111      0.512      0.504      1.657      0.808  -3148.706      0.055 
  3515.400    841.324      0.620      0.593      0.853      2.057      1.032      1.309  -3148.537      0.040 
  3515.200    848.639      0.586      0.529      0.760      2.381      1.134      1.148  -3148.367      0.041 
  3515.000    822.511      0.652      0.678      0.597      1.822      1.305      0.857  -3148.197      0.038 
  3514.800    841.324      0.717      0.810      0.695      1.160      1.326      0.898  -3148.027      0.040 
  3514.600    950.016      0.814      0.625      1.061      1.758      0.768      1.334  -3147.857      0.056 
  3514.400    987.641      0.854      0.767      0.952      1.512      0.877      1.176  -3147.687      0.061 
  3514.200    936.430      0.852      1.104      0.366      0.527      1.337      0.452  -3147.517      0.054 
  3514.000    853.865      0.776      0.963      0.597      1.758      1.242      0.909  -3147.347      0.042 
  3513.800    882.083      0.698      0.564      0.650      2.227      0.824      1.071  -3147.177      0.046 
  3513.600    865.361      0.771      0.143      0.707      2.397      0.248      1.038  -3147.007      0.044 
  3513.400    852.820      0.826      0.214      0.293      1.036      0.319      0.380  -3146.837      0.042 
  3513.200    925.979      0.878      0.394      0.329      0.903      0.471      0.392  -3146.667      0.053 
  3513.000    965.693      0.824      0.621      0.256      0.389      0.749      0.344  -3146.497      0.058 
