~Version Information
#-------------------
VERS.        2.0: CWLS log ASCII Standart - VERSION 2.0
WRAP.         NO: One line per depth step
~Well Information Block
#----------------------
#MNEM.UNIT  VALUE: DESCRIPTION
#----.---- -------: -------------
STRT.м                          2167.4: Начальная глубина
STOP.м                            3615: Конечная глубина
STEP.м                             0.2: Шаг квантования
NULL.                         -9999.99: Код отсутствия
COMP.                  ООО LUKOIL-Komi: Название организации
WELL.                              134: Наименование скважины
FLD .                        Tedinskoe: Наименование площади
LOC .                                 : Расположение скважины
CTRY.                                 : Название страны
SRVC.                             PNGG: Наим.орг-ции, проводившей каротаж
DATE.                        10.08.08 : Дата регистрации каротажных данных
UWI .                                 : Уникальный идентификатор скважины
~Parameter Information
#---------------------
#MNEM.UNIT  VALUE: DESCRIPTION
#----.---- -------: ---------------
BS  .м      0.22: Диаметр долота
~Curve Information Block
#-----------------------
#MNEM   .UNIT          : CURVE DESCRIPTION
#-------.----          : -----------------
DEPT    .m             : Колонка глубины
GR      .ur/hr         : Гамма каротаж
IK      .msm/m         : Индукционный каротаж аппаратурой АИК-5 (активная составляющая)
GZ4     .Omm           : Градиент-зонд  длиной 4.5м
PZ      .Omm           : Потенциал-зонд A0.5M6.5N
DS      .mm            : Каверномер
BS      .mm            : Номинальный диаметр 215.9мм
PS      .mV            : Потенциал самополяризации
RRA1    .mm            : Радиус1
RRB_1   .Omm           : Резистивиметр
RRA2    .mm            : Радиус2
RRA3    .mm            : Радиус3
RRA4    .mm            : Радиус4
C1      .mm            : Профиль1
C2      .mm            : Профиль2
PEF     .m3            : Суммарный объем скважины
PEF     .m3            : Объем затрубья
АбсОтмкр.m             : Абсолютные отметки ПНГГ
TEMP    .grad          : Температура
~Other Information
#-----------------
tool=СРК
mode=ННКт
id=59
tool=АИК-5
mode=Основной
id=42
tool=ЭК-1
mode=БК
id=5
tool=ЭК-1
mode=БКЗ
id=5
tool=ИНС-60
mode=Основной
id=260


~Ascii Log Data
# ...
  2385.800      8.004     78.063     10.571      6.761    230.644    215.900     44.706    116.758      0.260    113.887    116.758    113.887    234.669    227.773     47.218     16.700  -2180.108     51.365 
  2386.000      7.841     78.946     10.769      6.749    229.215    215.900     45.312    118.275      0.260    110.940    118.275    110.940    235.224    221.880     47.210     16.696  -2180.280     51.379 
  2386.200      7.864     80.194     10.769      6.681    230.157    215.900     46.434    118.564      0.260    111.593    118.564    111.593    235.689    223.187     47.201     16.693  -2180.451     51.378 
  2386.400      8.120     81.194     10.814      6.556    231.084    215.900     47.622    119.040      0.260    112.044    119.040    112.044    235.993    224.088     47.193     16.690  -2180.623     51.381 
  2386.600      8.315     82.087     10.968      6.453    228.496    215.900     48.418    117.944      0.260    110.552    117.944    110.552    236.104    221.104     47.185     16.686  -2180.794     51.387 
  2386.800      8.272     82.642     10.968      6.428    228.546    215.900     48.633    117.872      0.260    110.673    117.872    110.673    236.053    221.347     47.176     16.683  -2180.965     51.389 
  2387.000      8.797     83.754     10.925      6.402    229.394    215.900     48.341    117.686      0.260    111.707    117.686    111.707    235.854    223.414     47.168     16.680  -2181.137     51.382 
  2387.200      8.638     84.514     10.851      6.219    229.334    215.900     47.843    118.369      0.260    110.966    118.369    110.966    235.589    221.931     47.160     16.676  -2181.308     51.384 
  2387.400      8.383     85.252     10.697      6.197    229.237    215.900     47.483    117.686      0.260    111.550    117.686    111.550    235.303    223.100     47.152     16.673  -2181.480     51.381 
  2387.600      8.638     85.182     10.544      6.238    229.120    215.900     47.478    117.059      0.260    112.061    117.059    112.061    235.002    224.122     47.144     16.670  -2181.651     51.381 
  2387.800      8.108     84.758     10.422      6.402    229.591    215.900     47.793    117.651      0.260    111.939    117.651    111.939    234.687    223.879     47.135     16.667  -2181.823     51.387 
  2388.000      8.331     83.954     10.372      6.402    228.624    215.900     48.185    117.067      0.260    111.557    117.067    111.557    234.388    223.113     47.127     16.663  -2181.994     51.391 
  2388.200      8.603     83.576     10.526      6.402    228.547    215.900     48.358    116.990      0.260    111.557    116.990    111.557    234.088    223.113     47.119     16.660  -2182.165     51.398 
  2388.400      8.789     83.385     10.571      6.402    228.685    215.900     48.143    117.054      0.260    111.630    117.054    111.630    233.776    223.261     47.111     16.657  -2182.337     51.398 
  2388.600      8.570     83.530     10.571      6.402    228.752    215.900     47.567    116.758      0.260    111.995    116.758    111.995    233.483    223.990     47.102     16.654  -2182.508     51.395 
  2388.800      8.319     83.378     10.481      6.402    228.282    215.900     46.835    116.420      0.260    111.862    116.420    111.862    233.211    223.724     47.094     16.650  -2182.680     51.396 
  2389.000      8.187     83.193     10.372      6.402    228.391    215.900     46.151    116.396      0.260    111.995    116.396    111.995    232.946    223.990     47.086     16.647  -2182.851     51.399 
  2389.200      8.034     83.084     10.282      6.453    228.404    215.900     45.664    116.409      0.260    111.995    116.409    111.995    232.694    223.990     47.078     16.644  -2183.023     51.388 
  2389.400      7.924     83.393     10.174      6.453    228.135    215.900     45.438    116.061      0.260    112.074    116.061    112.074    232.435    224.148     47.070     16.641  -2183.194     51.393 
  2389.600      8.286     83.882     10.174      6.402    228.381    215.900     45.543    116.308      0.260    112.074    116.308    112.074    232.156    224.148     47.061     16.638  -2183.366     51.395 
  2389.800      8.306     84.055     10.167      6.402    228.212    215.900     45.951    116.138      0.260    112.074    116.138    112.074    231.865    224.148     47.053     16.634  -2183.537     51.388 
  2390.000      8.830     84.122     10.124      6.402    228.665    215.900     46.472    115.801      0.260    112.864    115.801    112.864    231.576    225.728     47.045     16.631  -2183.709     51.384 
  2390.200      8.925     84.338     10.043      6.402    228.595    215.900     46.814    115.730      0.260    112.864    115.730    112.864    231.320    225.728     47.037     16.628  -2183.880     51.395 
  2390.400      8.984     84.888      9.975      6.402    227.963    215.900     46.798    115.099      0.251    112.864    115.099    112.864    231.174    225.728     47.029     16.625  -2184.052     51.392 
  2390.600      8.477     84.731      9.975      6.346    229.638    215.900     46.487    114.522      0.260    115.116    114.522    115.116    231.146    230.231     47.020     16.621  -2184.223     51.398 
  2390.800      8.428     84.075     10.025      6.287    227.800    215.900     46.110    115.884      0.260    111.916    115.884    111.916    231.227    223.831     47.012     16.618  -2184.394     51.400 
  2391.000      7.896     83.241     10.074      6.402    227.745    215.900     45.846    115.829      0.260    111.916    115.829    111.916    231.409    223.831     47.004     16.615  -2184.566     51.397 
  2391.200      7.851     82.752     10.018      6.402    227.745    215.900     45.724    115.829      0.260    111.916    115.829    111.916    231.639    223.831     46.996     16.612  -2184.737     51.388 
  2391.400      7.705     81.706      9.975      6.453    227.395    215.900     45.694    116.113      0.260    111.283    116.113    111.283    231.835    222.565     46.988     16.609  -2184.909     51.385 
  2391.600      8.061     81.109     10.154      6.453    227.204    215.900     45.816    116.237      0.260    110.967    116.237    110.967    231.980    221.934     46.980     16.605  -2185.080     51.379 
  2391.800      8.334     80.886     10.174      6.453    227.025    215.900     46.295    116.100      0.260    110.925    116.100    110.925    232.050    221.849     46.971     16.602  -2185.252     51.385 
  2392.000      8.226     81.491     10.174      6.453    226.934    215.900     47.235    115.973      0.260    110.961    115.973    110.961    232.008    221.922     46.963     16.599  -2185.423     51.390 
  2392.200      8.192     81.545     10.082      6.453    227.017    215.900     48.477    116.138      0.260    110.879    116.138    110.879    231.910    221.757     46.955     16.596  -2185.595     51.394 
  2392.400      8.629     81.417      9.975      6.487    226.833    215.900     49.617    115.862      0.260    110.971    115.862    110.971    231.772    221.942     46.947     16.593  -2185.766     51.405 
  2392.600      8.568     80.803      9.975      6.505    227.479    215.900     50.377    116.284      0.260    111.195    116.284    111.195    231.617    222.389     46.939     16.590  -2185.938     51.406 
  2392.800      8.830     80.907      9.975      6.556    226.896    215.900     50.709    115.717      0.260    111.179    115.717    111.179    231.495    222.359     46.931     16.587  -2186.109     51.402 
  2393.000      8.687     81.262      9.777      6.556    226.062    215.900     50.778    114.788      0.260    111.274    114.788    111.274    231.482    222.547     46.923     16.584  -2186.281     51.406 
  2393.200      8.383     81.871      9.677      6.556    228.496    215.900     50.692    114.247      0.260    114.249    114.247    114.249    231.455    228.499     46.915     16.581  -2186.452     51.413 
  2393.400      8.358     81.613      9.677      6.556    228.426    215.900     50.452    117.969      0.260    110.457    117.969    110.457    231.416    220.914     46.907     16.577  -2186.624     51.404 
