~Version Information
#-------------------
VERS.        2.0: CWLS log ASCII Standart - VERSION 2.0
WRAP.         NO: One line per depth step
~Well Information Block
#----------------------
#MNEM.UNIT  VALUE: DESCRIPTION
#----.---- -------: -------------
STRT.м                            3615: Начальная глубина
STOP.м                            3296: Конечная глубина
STEP.м                            -0.2: Шаг квантования
NULL.                        -9999.999: Код отсутствия
COMP.                  ООО LUKOIL-Komi: Название организации
WELL.                              134: Наименование скважины
FLD .                        Tedinskoe: Наименование площади
LOC .                                 : Расположение скважины
CTRY.                                 : Название страны
SRVC.                             PNGG: Наим.орг-ции, проводившей каротаж
DATE.                         12-08-08: Дата регистрации каротажных данных
UWI .                                 : Уникальный идентификатор скважины
~Parameter Information
#---------------------
#MNEM.UNIT  VALUE: DESCRIPTION
#----.---- -------: ---------------
~Curve Information Block
#-----------------------
#MNEM   .UNIT         : CURVE DESCRIPTION
#-------.----         : -----------------
DEPT    .м            : Колонка глубины
GK_spek .imp          : Гамма каротаж по СГК
K       .             : Содержание калия
U       .ppm          : Содержание урана
TH      .ppm          : Содержание тория
THU     .otn.ed       : Отношение TH/U
UK      .ppm          : Отношение U/K
THK     .ppm          : Отношение TH/K
АбсОтмкр.м            : Абс.отметки ПНГГ
qсгк    .             : Двойной разностной параметр по СГК
~Other Information
#-----------------
~Ascii Log Data
# ...
  3556.600    801.609      0.788      0.467      1.042      2.574      0.618      1.331  -3183.842      0.035 
  3556.400    815.196      0.730      0.359      1.047      2.964      0.555      1.385  -3183.669      0.037 
  3556.200    827.737      0.711      0.663      0.695      2.107      0.982      0.960  -3183.496      0.038 
  3556.000    840.279      0.777      0.924      0.220      0.411      1.241      0.321  -3183.323      0.040 
  3555.800    865.361      0.833      0.782      0.256      0.554      0.991      0.326  -3183.150      0.044 
  3555.600    835.053      0.795      0.517      0.352      0.713      0.662      0.450  -3182.977      0.039 
  3555.400    868.497      0.695      0.550      0.347      0.662      0.803      0.501  -3182.804      0.044 
  3555.200    837.143      0.681      0.470      0.242      0.419      0.701      0.393  -3182.631      0.040 
  3555.000    895.670      0.704      0.334      0.220      0.558      0.483      0.355  -3182.458      0.048 
  3554.800    905.076      0.679      0.366      0.256      0.652      0.576      0.421  -3182.285      0.049 
  3554.600    873.722      0.615      0.547      0.352      0.720      0.927      0.578  -3182.112      0.045 
  3554.400    788.022      0.610      0.527      0.347      0.740      0.904      0.574  -3181.939      0.033 
  3554.200    816.241      0.636      0.412      0.461      1.196      0.678      0.737  -3181.766      0.037 
  3554.000    920.753      0.798      0.243      1.033      3.199      0.408      1.193  -3181.593      0.052 
  3553.800    973.009      0.835      0.273      1.060      3.380      0.465      1.136  -3181.420      0.059 
  3553.600    849.685      0.792      0.382      0.740      2.326      0.622      0.777  -3181.247      0.041 
  3553.400    823.557      0.723      0.390      0.476      1.375      0.641      0.627  -3181.074      0.038 
  3553.200    825.647      0.810      0.287      0.864      2.511      0.455      1.023  -3180.901      0.038 
  3553.000    836.098      0.820      0.288      0.859      2.478      0.413      1.012  -3180.728      0.040 
  3552.800    720.089      0.800      0.345      0.791      2.269      0.462      0.945  -3180.555      0.023 
  3552.600    750.398      0.772      0.358      0.659      1.909      0.505      0.804  -3180.382      0.027 
  3552.400    701.277      0.770      0.433      0.791      1.905      0.597      1.002  -3180.209      0.020 
  3552.200    801.609      0.656      0.967      0.749      1.025      1.653      1.155  -3180.036      0.035 
  3552.000    800.564      0.516      1.905      0.827      0.744      4.921      1.725  -3179.863      0.034 
  3551.800    772.346      0.478      2.460      0.732      0.315      6.263      1.720  -3179.690      0.030 
  3551.600    720.089      0.502      2.127      0.806      0.460      5.150      1.786  -3179.517      0.023 
  3551.400    789.068      0.556      1.441      0.941      0.713      2.560      1.761  -3179.343      0.033 
  3551.200    751.443      0.555      1.282      0.843      0.688      2.322      1.602  -3179.170      0.027 
  3551.000    816.241      0.618      1.266      0.586      0.479      2.056      1.001  -3178.997      0.037 
  3550.800    782.797      0.716      0.928      0.695      1.678      1.405      0.896  -3178.824      0.032 
  3550.600    790.112      0.803      0.561      0.915      2.465      0.773      1.093  -3178.651      0.033 
  3550.400    830.872      0.802      0.354      1.061      3.106      0.438      1.351  -3178.478      0.039 
  3550.200    776.526      0.668      0.616      0.659      1.902      1.047      0.966  -3178.305      0.031 
  3550.000    781.752      0.588      1.004      0.513      1.259      1.762      0.836  -3178.132      0.032 
  3549.800    835.053      0.658      1.204      0.355      0.328      1.937      0.542  -3177.960      0.039 
  3549.600    796.383      0.682      1.161      0.550      0.475      1.830      0.883  -3177.789      0.034 
  3549.400    792.203      0.683      0.900      0.842      1.270      1.468      1.278  -3177.617      0.033 
  3549.200    818.331      0.566      0.999      1.099      1.588      2.149      2.006  -3177.445      0.037 
  3549.000    817.286      0.515      1.287      1.160      1.355      2.941      2.344  -3177.273      0.037 
  3548.800    936.430      0.470      1.492      1.172      0.880      3.294      2.501  -3177.101      0.054 
  3548.600    719.044      0.483      1.787      0.915      0.792      4.053      1.758  -3176.929      0.023 
  3548.400    688.736      0.417      2.142      0.549      0.527      5.763      1.163  -3176.757      0.018 
  3548.200    673.059      0.378      2.510      0.586      0.281      6.812      1.452  -3176.586      0.016 
  3548.000    783.842      0.425      2.287      0.915      0.409      5.632      2.079  -3176.414      0.032 
  3547.800    768.165      0.435      2.034      0.806      0.378      4.729      1.780  -3176.242      0.030 
  3547.600    837.143      0.284      2.210      0.502      0.225      6.276      1.349  -3176.070      0.040 
  3547.400    818.331      0.209      2.236      0.429      0.188      6.968      1.344  -3175.898      0.037 
  3547.200    803.699      0.382      1.883      0.744      0.559      5.298      1.543  -3175.726      0.035 
  3547.000    791.158      0.619      1.158      1.100      1.180      2.348      1.681  -3175.554      0.033 
  3546.800    783.842      0.685      0.925      1.109      1.272      1.360      1.602  -3175.382      0.032 
  3546.600    889.399      0.752      0.652      0.915      1.804      1.062      1.236  -3175.211      0.047 
  3546.400    841.324      0.867      0.652      0.659      1.666      0.921      0.725  -3175.039      0.040 
  3546.200    874.767      0.845      0.486      0.586      1.594      0.595      0.668  -3174.867      0.045 
  3546.000    820.421      0.787      0.386      0.450      1.232      0.490      0.575  -3174.695      0.037 
  3545.800    887.309      0.780      0.037      0.452      1.507      0.132      0.571  -3174.523      0.047 
  3545.600    809.970      0.824      0.000      0.416      1.385      0.100      0.492  -3174.351      0.036 
  3545.400    713.819      0.736      0.071      0.230      0.798      0.184      0.323  -3174.179      0.022 
  3545.200    650.066      0.646      0.095      0.329      1.138      0.212      0.604  -3174.008      0.013 
  3545.000    659.472      0.585      0.215      0.403      1.235      0.379      0.771  -3173.836      0.014 
  3544.800    676.194      0.617      0.363      0.366      1.068      0.578      0.686  -3173.664      0.016 
  3544.600    655.292      0.670      0.527      0.304      0.643      0.788      0.500  -3173.492      0.013 
  3544.400    640.660      0.654      0.486      0.258      0.558      0.738      0.445  -3173.320      0.011 
  3544.200    636.480      0.638      0.477      0.194      0.444      0.742      0.359  -3173.148      0.011 
  3544.000    641.705      0.681      0.376      0.220      0.802      0.578      0.347  -3172.976      0.011 
  3543.800    639.615      0.782      0.219      0.512      1.738      0.351      0.646  -3172.805      0.011 
  3543.600    611.396      0.787      0.068      0.732      2.440      0.137      0.946  -3172.633      0.007 
  3543.400    687.691      0.833      0.050      0.512      1.738      0.138      0.730  -3172.461      0.018 
  3543.200    616.622      0.834      0.038      0.439      1.504      0.128      0.666  -3172.289      0.008 
  3543.000    593.629      0.867      0.107      0.293      1.036      0.197      0.442  -3172.117      0.005 
  3542.800    600.945      0.737      0.350      0.220      0.802      0.565      0.357  -3171.945      0.006 
  3542.600    609.307      0.694      0.383      0.110      0.436      0.644      0.224  -3171.773      0.007 
  3542.400    608.261      0.659      0.279      0.256      0.884      0.512      0.397  -3171.601      0.007 
  3542.200    544.509      0.791      0.096      0.586      1.952      0.202      0.692  -3171.430      0.000 
