~Version Information
#-------------------
VERS.        2.0: CWLS log ASCII Standart - VERSION 2.0
WRAP.         NO: One line per depth step
~Well Information Block
#----------------------
#MNEM.UNIT  VALUE: DESCRIPTION
#----.---- -------: -------------
STRT.м                            3615: Начальная глубина
STOP.м                            3296: Конечная глубина
STEP.м                            -0.2: Шаг квантования
NULL.                        -9999.999: Код отсутствия
COMP.                  ООО LUKOIL-Komi: Название организации
WELL.                              134: Наименование скважины
FLD .                        Tedinskoe: Наименование площади
LOC .                                 : Расположение скважины
CTRY.                                 : Название страны
SRVC.                             PNGG: Наим.орг-ции, проводившей каротаж
DATE.                         12-08-08: Дата регистрации каротажных данных
UWI .                                 : Уникальный идентификатор скважины
~Parameter Information
#---------------------
#MNEM.UNIT  VALUE: DESCRIPTION
#----.---- -------: ---------------
~Curve Information Block
#-----------------------
#MNEM   .UNIT         : CURVE DESCRIPTION
#-------.----         : -----------------
DEPT    .м            : Колонка глубины
GK_spek .imp          : Гамма каротаж по СГК
K       .             : Содержание калия
U       .ppm          : Содержание урана
TH      .ppm          : Содержание тория
THU     .otn.ed       : Отношение TH/U
UK      .ppm          : Отношение U/K
THK     .ppm          : Отношение TH/K
АбсОтмкр.м            : Абс.отметки ПНГГ
qсгк    .             : Двойной разностной параметр по СГК
~Other Information
#-----------------
~Ascii Log Data
  3615.000    663.653      0.781      0.227      0.220      0.772      0.309      0.367  -9999.999      0.015 
  3614.800    630.209      0.900      0.143      0.476      1.616      0.230      0.543  -9999.999      0.010 
  3614.600    573.772      0.961      0.000      0.659      2.196      0.100      0.687  -9999.999      0.002 
  3614.400    580.043      1.012      0.000      0.785      2.616      0.100      0.790  -9999.999      0.003 
  3614.200    596.765      0.999      0.094      0.632      2.089      0.170      0.634  -9999.999      0.005 
  3614.000    601.991      0.923      0.262      0.455      1.527      0.328      0.496  -9999.999      0.006 
  3613.800    634.389      0.862      0.276      0.220      0.756      0.350      0.288  -9999.999      0.010 
  3613.600    612.442      0.763      0.264      0.236      0.728      0.413      0.352  -9999.999      0.007 
  3613.400    622.893      0.751      0.170      0.558      1.745      0.337      0.712  -9999.999      0.009 
  3613.200    574.817      0.769      0.185      0.529      1.704      0.319      0.689  -9999.999      0.002 
  3613.000    580.043      0.818      0.183      0.329      1.168      0.260      0.455  -9999.999      0.003 
  3612.800    628.119      0.797      0.200      0.220      0.802      0.281      0.348  -9999.999      0.010 
  3612.600    642.750      0.808      0.107      0.492      1.670      0.205      0.636  -9999.999      0.012 
  3612.400    587.359      0.838      0.129      0.485      1.648      0.217      0.622  -9999.999      0.004 
  3612.200    594.675      0.842      0.243      0.199      0.734      0.316      0.306  -9999.999      0.005 
  3612.000    638.570      0.817      0.224      0.110      0.436      0.297      0.209  -9999.999      0.011 
  3611.800    594.675      0.831      0.071      0.366      1.250      0.160      0.453  -9999.999      0.005 
  3611.600    583.178      0.829      0.061      0.403      1.372      0.152      0.486  -9999.999      0.003 
  3611.400    575.862      0.782      0.177      0.220      0.802      0.277      0.308  -9999.999      0.002 
  3611.200    576.908      0.710      0.287      0.110      0.408      0.406      0.228  -9999.999      0.002 
  3611.000    597.810      0.745      0.226      0.321      1.063      0.355      0.444  -9999.999      0.005 
  3610.800    599.900      0.821      0.208      0.343      1.144      0.304      0.459  -9999.999      0.005 
  3610.600    598.855      0.849      0.147      0.284      0.988      0.225      0.385  -9999.999      0.005 
  3610.400    584.224      0.787      0.111      0.496      1.682      0.193      0.723  -9999.999      0.003 
  3610.200    613.487      0.722      0.097      0.685      2.256      0.208      0.969  -9999.999      0.007 
  3610.000    556.005      0.787      0.312      0.496      1.645      0.398      0.741  -3230.615      0.000 
  3609.800    569.592      0.829      0.508      0.110      0.408      0.611      0.225  -3230.439      0.001 
  3609.600    608.261      0.819      0.456      0.000      0.100      0.553      0.100  -3230.264      0.007 
  3609.400    563.321      0.769      0.343      0.065      0.249      0.449      0.150  -3230.089      0.000 
  3609.200    550.780      0.815      0.260      0.196      0.634      0.319      0.262  -3229.913      0.000 
  3609.000    552.870      0.800      0.265      0.276      0.883      0.334      0.341  -3229.738      0.000 
  3608.800    539.283      0.785      0.158      0.526      1.752      0.240      0.651  -3229.562      0.000 
  3608.600    537.193      0.782      0.070      0.504      1.710      0.171      0.657  -3229.387      0.000 
  3608.400    559.141      0.866      0.096      0.329      1.168      0.169      0.470  -3229.211      0.000 
  3608.200    554.960      0.843      0.194      0.110      0.436      0.256      0.227  -3229.036      0.000 
  3608.000    560.186      0.768      0.244      0.146      0.548      0.315      0.270  -3228.860      0.000 
  3607.800    548.689      0.619      0.197      0.220      0.772      0.321      0.424  -3228.685      0.000 
  3607.600    540.328      0.586      0.332      0.146      0.548      0.545      0.363  -3228.509      0.000 
  3607.400    563.321      0.628      0.322      0.329      1.138      0.553      0.563  -3228.334      0.000 
  3607.200    559.141      0.764      0.293      0.293      1.036      0.452      0.454  -3228.158      0.000 
  3607.000    559.141      0.838      0.272      0.220      0.802      0.343      0.366  -3227.983      0.000 
  3606.800    536.148      0.851      0.534      0.000      0.100      0.640      0.100  -3227.807      0.000 
  3606.600    539.283      0.781      0.513      0.220      0.802      0.637      0.389  -3227.632      0.000 
  3606.400    574.818      0.739      0.293      0.403      1.372      0.405      0.604  -3227.457      0.002 
  3606.200    547.644      0.702      0.281      0.476      1.356      0.461      0.682  -3227.281      0.000 
  3606.000    516.291      0.732      0.404      0.256      0.577      0.615      0.399  -3227.106      0.000 
  3605.800    581.088      0.797      0.449      0.110      0.206      0.606      0.235  -3226.930      0.003 
  3605.600    534.057      0.773      0.547      0.329      0.365      0.845      0.660  -3226.755      0.000 
  3605.400    556.005      0.656      0.849      0.439      0.453      1.474      0.847  -3226.579      0.000 
  3605.200    562.276      0.656      0.741      0.439      0.701      1.383      0.751  -3226.404      0.000 
  3605.000    544.509      0.771      0.304      0.366      1.250      0.634      0.458  -3226.228      0.000 
  3604.800    541.373      0.746      0.341      0.512      1.439      0.774      0.704  -3226.053      0.000 
  3604.600    530.922      0.665      0.524      0.461      1.177      1.061      0.696  -3225.877      0.000 
  3604.400    552.870      0.647      0.775      0.346      0.615      1.336      0.559  -3225.702      0.000 
  3604.200    527.787      0.723      0.623      0.241      0.475      0.899      0.375  -3225.526      0.000 
  3604.000    535.103      0.706      0.625      0.110      0.166      0.911      0.233  -3225.351      0.000 
  3603.800    560.186      0.670      0.624      0.000      0.100      0.985      0.100  -3225.175      0.000 
  3603.600    541.373      0.633      0.824      0.000      0.100      1.326      0.100  -3225.000      0.000 
  3603.400    541.373      0.605      0.645      0.315      1.119      1.063      0.650  -3224.825      0.000 
  3603.200    519.426      0.615      0.492      0.420      1.458      0.781      0.833  -3224.649      0.000 
  3603.000    517.336      0.661      0.334      0.534      1.820      0.565      0.901  -3224.474      0.000 
  3602.800    533.012      0.779      0.316      0.512      1.738      0.491      0.650  -3224.298      0.000 
  3602.600    515.245      0.805      0.437      0.622      1.802      0.622      0.763  -3224.123      0.000 
  3602.400    589.449      0.740      0.666      0.366      0.888      0.947      0.482  -3223.947      0.004 
  3602.200    548.689      0.739      0.592      0.220      0.500      0.849      0.315  -3223.772      0.000 
  3602.000    619.758      0.767      0.301      0.256      0.884      0.423      0.345  -3223.596      0.008 
  3601.800    603.036      0.812      0.289      0.256      0.884      0.362      0.358  -3223.421      0.006 
  3601.600    608.261      0.725      0.237      0.329      1.138      0.330      0.571  -3223.245      0.007 
  3601.400    565.411      0.694      0.116      0.403      1.372      0.207      0.690  -3223.070      0.000 
  3601.200    553.915      0.647      0.125      0.366      1.250      0.261      0.618  -3222.894      0.000 
  3601.000    539.283      0.718      0.167      0.329      1.138      0.314      0.464  -3222.719      0.000 
  3600.800    472.396      0.797      0.125      0.403      1.372      0.261      0.505  -3222.543      0.000 
  3600.600    526.742      0.793      0.152      0.366      1.250      0.314      0.459  -3222.368      0.000 
