~Version Information
#-------------------
VERS.        2.0: CWLS log ASCII Standart - VERSION 2.0
WRAP.         NO: One line per depth step
~Well Information Block
#----------------------
#MNEM.UNIT  VALUE: DESCRIPTION
#----.---- -------: -------------
STRT.м                          2167.4: Начальная глубина
STOP.м                            3615: Конечная глубина
STEP.м                             0.2: Шаг квантования
NULL.                         -9999.99: Код отсутствия
COMP.                  ООО LUKOIL-Komi: Название организации
WELL.                              134: Наименование скважины
FLD .                        Tedinskoe: Наименование площади
LOC .                                 : Расположение скважины
CTRY.                                 : Название страны
SRVC.                             PNGG: Наим.орг-ции, проводившей каротаж
DATE.                        10.08.08 : Дата регистрации каротажных данных
UWI .                                 : Уникальный идентификатор скважины
~Parameter Information
#---------------------
#MNEM.UNIT  VALUE: DESCRIPTION
#----.---- -------: ---------------
BS  .м      0.22: Диаметр долота
~Curve Information Block
#-----------------------
#MNEM   .UNIT          : CURVE DESCRIPTION
#-------.----          : -----------------
DEPT    .m             : Колонка глубины
GR      .ur/hr         : Гамма каротаж
IK      .msm/m         : Индукционный каротаж аппаратурой АИК-5 (активная составляющая)
GZ4     .Omm           : Градиент-зонд  длиной 4.5м
PZ      .Omm           : Потенциал-зонд A0.5M6.5N
DS      .mm            : Каверномер
BS      .mm            : Номинальный диаметр 215.9мм
PS      .mV            : Потенциал самополяризации
RRA1    .mm            : Радиус1
RRB_1   .Omm           : Резистивиметр
RRA2    .mm            : Радиус2
RRA3    .mm            : Радиус3
RRA4    .mm            : Радиус4
C1      .mm            : Профиль1
C2      .mm            : Профиль2
PEF     .m3            : Суммарный объем скважины
PEF     .m3            : Объем затрубья
АбсОтмкр.m             : Абсолютные отметки ПНГГ
TEMP    .grad          : Температура
~Other Information
#-----------------
tool=СРК
mode=ННКт
id=59
tool=АИК-5
mode=Основной
id=42
tool=ЭК-1
mode=БК
id=5
tool=ЭК-1
mode=БКЗ
id=5
tool=ИНС-60
mode=Основной
id=260


~Ascii Log Data
# ...
  3423.200      9.496     30.548    192.579     18.202    209.696    215.900     18.985     99.995      0.229    109.701     99.995    109.701    219.716    219.401      6.657      1.954  -3069.605     64.260 
  3423.400     10.524     28.375    171.484     17.676    210.805    215.900     19.109    101.218      0.223    109.587    101.218    109.587    224.492    219.175      6.650      1.952  -3069.779     64.268 
  3423.600     10.388     30.409    144.388     17.506    232.913    215.900     19.090    121.744      0.216    111.169    121.744    111.169    228.564    222.338      6.644      1.950  -3069.952     64.289 
  3423.800     10.849     33.846    126.414     17.298    236.787    215.900     18.849    125.450      0.229    111.337    125.450    111.337    232.406    222.675      6.635      1.947  -3070.126     64.310 
  3424.000     10.848     32.955    114.645     17.158    230.028    215.900     18.233    119.362      0.214    110.666    119.362    110.666    235.791    221.331      6.626      1.943  -3070.300     64.330 
  3424.200     10.755     31.037    104.121     17.209    226.038    215.900     17.177    113.538      0.204    112.500    113.538    112.500    237.961    225.001      6.618      1.940  -3070.473     64.352 
  3424.400     10.719     26.695     91.755     17.437    239.511    215.900     15.844    126.490      0.209    113.020    126.490    113.020    239.649    226.041      6.610      1.937  -3070.647     64.371 
  3424.600     10.087     21.195     79.865     17.900    227.751    215.900     14.625    115.170      0.209    112.582    115.170    112.582    241.433    225.163      6.601      1.933  -3070.821     64.395 
  3424.800      9.758     14.192     72.790     18.507    233.226    215.900     13.950    120.427      0.213    112.800    120.427    112.800    243.210    225.599      6.593      1.929  -3070.994     64.422 
  3425.000      8.096      9.423     70.376     19.129    232.590    215.900     13.956    120.750      0.224    111.840    120.750    111.840    244.741    223.680      6.584      1.926  -3071.168     64.450 
  3425.200      6.298      7.820     70.251     19.995    237.609    215.900     14.383    125.647      0.219    111.963    125.647    111.963    246.337    223.925      6.576      1.922  -3071.342     64.469 
  3425.400      3.164      8.712     72.216     20.624    238.327    215.900     14.767    128.236      0.229    110.092    128.236    110.092    247.417    220.184      6.567      1.918  -3071.516     64.497 
  3425.600      1.932      9.206     74.493     21.316    237.659    215.900     14.864    126.452      0.229    111.207    126.452    111.207    247.579    222.414      6.558      1.914  -3071.689     64.525 
  3425.800      1.973      9.333     76.874     21.772    235.276    215.900     14.744    124.527      0.229    110.749    124.527    110.749    246.636    221.498      6.549      1.911  -3071.863     64.550 
  3426.000      1.943      9.525     78.570     22.272    230.394    215.900     14.606    119.645      0.229    110.749    119.645    110.749    244.595    221.498      6.540      1.907  -3072.037     64.576 
  3426.200      2.078     10.546     78.065     22.855    232.999    215.900     14.473    121.380      0.227    111.618    121.380    111.618    241.158    223.237      6.532      1.903  -3072.210     64.597 
  3426.400      2.095     13.822     80.011     23.116    237.443    215.900     14.183    125.944      0.213    111.499    125.944    111.499    236.439    222.999      6.523      1.900  -3072.384     64.620 
  3426.600      2.380     16.418     84.554     23.150    230.246    215.900     13.537    119.286      0.211    110.959    119.286    110.959    230.692    221.919      6.515      1.896  -3072.558     64.638 
  3426.800      2.645     16.862     88.470     23.314    222.418    215.900     12.499    112.633      0.229    109.785    112.633    109.785    224.338    219.570      6.506      1.893  -3072.731     64.651 
  3427.000      3.196     15.402     88.332     23.457    213.574    215.900     11.240    104.285      0.229    109.288    104.285    109.288    217.957    218.577      6.498      1.890  -3072.905     64.653 
  3427.200      3.719     13.371     86.719     23.729    210.500    215.900     10.040    101.212      0.229    109.288    101.212    109.288    212.315    218.577      6.491      1.888  -3073.079     64.660 
  3427.400      4.161     13.602     85.434     23.970    210.351    215.900      9.130    101.063      0.229    109.288    101.063    109.288    208.047    218.577      6.484      1.886  -3073.252     64.666 
  3427.600      3.650     13.675     83.065     24.528    209.968    215.900      8.598    100.679      0.229    109.288    100.679    109.288    205.491    218.577      6.477      1.884  -3073.426     64.665 
  3427.800      3.762     12.583     79.901     24.994    209.988    215.900      8.401    100.699      0.229    109.288    100.699    109.288    204.645    218.577      6.470      1.882  -3073.600     64.667 
  3428.000      4.063     10.095     78.008     25.576    210.265    215.900      8.417    100.976      0.229    109.288    100.976    109.288    205.335    218.577      6.464      1.880  -3073.773     64.665 
  3428.200      3.658      8.007     77.182     26.305    210.629    215.900      8.454    101.341      0.229    109.288    101.341    109.288    207.301    218.577      6.457      1.878  -3073.947     64.666 
  3428.400      3.181      6.746     76.874     26.940    210.713    215.900      8.317    101.554      0.229    109.158    101.554    109.158    209.802    218.317      6.450      1.876  -3074.121     64.664 
  3428.600      2.694      6.840     77.072     27.606    219.176    215.900      7.892    110.179      0.229    108.996    110.179    108.996    212.209    217.993      6.443      1.874  -3074.294     64.662 
  3428.800      2.360      8.224     79.345     28.169    219.025    215.900      7.237    110.029      0.229    108.996    110.029    108.996    214.066    217.993      6.435      1.871  -3074.468     64.655 
  3429.000      2.080      9.697     82.630     28.640    218.450    215.900      6.532    109.454      0.229    108.996    109.454    108.996    214.911    217.993      6.428      1.869  -3074.642     64.658 
  3429.200      2.165     11.193     87.436     28.923    219.959    215.900      5.946    110.962      0.229    108.996    110.962    108.996    214.283    217.993      6.420      1.866  -3074.816     64.660 
  3429.400      2.241     11.168     93.066     29.347    219.810    215.900      5.515    111.145      0.229    108.665    111.145    108.665    212.632    217.330      6.412      1.864  -3074.989     64.664 
  3429.600      2.521     10.729     98.386     29.501    209.561    215.900      5.104    101.421      0.229    108.140    101.421    108.140    210.472    216.280      6.405      1.861  -3075.163     64.674 
  3429.800      2.720      9.377    100.677     29.797    209.548    215.900      4.469    101.421      0.229    108.127    101.421    108.127    208.292    216.254      6.398      1.859  -3075.337     64.678 
  3430.000      2.748      8.919    102.056     30.136    209.295    215.900      3.388    101.168      0.219    108.127    101.168    108.127    206.645    216.254      6.391      1.857  -3075.510     64.684 
  3430.200      2.509      7.830    102.283     30.590    209.265    215.900      1.856    101.138      0.229    108.127    101.138    108.127    206.138    216.254      6.384      1.855  -3075.683     64.689 
  3430.400      2.994      7.341    101.819     31.063    209.283    215.900      0.163    101.112      0.223    108.171    101.112    108.171    206.784    216.342      6.377      1.853  -3075.856     64.693 
  3430.600      2.939      6.640    101.573     31.516    211.270    215.900     -1.211    102.484      0.229    108.786    102.484    108.786    208.321    217.572      6.370      1.851  -3076.029     64.688 
  3430.800      3.029      5.716    101.767     31.985    214.972    215.900     -1.968    107.003      0.222    107.969    107.003    107.969    210.541    215.938      6.363      1.849  -3076.202     64.694 
