~Version Information
#-------------------
VERS.        2.0: CWLS log ASCII Standart - VERSION 2.0
WRAP.         NO: One line per depth step
~Well Information Block
#----------------------
#MNEM.UNIT  VALUE: DESCRIPTION
#----.---- -------: -------------
STRT.м                          2167.4: Начальная глубина
STOP.м                            3615: Конечная глубина
STEP.м                             0.2: Шаг квантования
NULL.                         -9999.99: Код отсутствия
COMP.                  ООО LUKOIL-Komi: Название организации
WELL.                              134: Наименование скважины
FLD .                        Tedinskoe: Наименование площади
LOC .                                 : Расположение скважины
CTRY.                                 : Название страны
SRVC.                             PNGG: Наим.орг-ции, проводившей каротаж
DATE.                        10.08.08 : Дата регистрации каротажных данных
UWI .                                 : Уникальный идентификатор скважины
~Parameter Information
#---------------------
#MNEM.UNIT  VALUE: DESCRIPTION
#----.---- -------: ---------------
BS  .м      0.22: Диаметр долота
~Curve Information Block
#-----------------------
#MNEM   .UNIT          : CURVE DESCRIPTION
#-------.----          : -----------------
DEPT    .m             : Колонка глубины
GR      .ur/hr         : Гамма каротаж
IK      .msm/m         : Индукционный каротаж аппаратурой АИК-5 (активная составляющая)
GZ4     .Omm           : Градиент-зонд  длиной 4.5м
PZ      .Omm           : Потенциал-зонд A0.5M6.5N
DS      .mm            : Каверномер
BS      .mm            : Номинальный диаметр 215.9мм
PS      .mV            : Потенциал самополяризации
RRA1    .mm            : Радиус1
RRB_1   .Omm           : Резистивиметр
RRA2    .mm            : Радиус2
RRA3    .mm            : Радиус3
RRA4    .mm            : Радиус4
C1      .mm            : Профиль1
C2      .mm            : Профиль2
PEF     .m3            : Суммарный объем скважины
PEF     .m3            : Объем затрубья
АбсОтмкр.m             : Абсолютные отметки ПНГГ
TEMP    .grad          : Температура
~Other Information
#-----------------
tool=СРК
mode=ННКт
id=59
tool=АИК-5
mode=Основной
id=42
tool=ЭК-1
mode=БК
id=5
tool=ЭК-1
mode=БКЗ
id=5
tool=ИНС-60
mode=Основной
id=260


~Ascii Log Data
# ...
  3048.800      6.579    143.538      4.507      5.011    214.731    215.900    -70.838    107.646      0.239    107.086    107.646    107.086    214.056    214.171     21.417      7.398  -2743.672     60.197 
  3049.000      7.015    144.729      3.960      5.142    214.559    215.900    -70.691    107.473      0.239    107.086    107.473    107.086    214.163    214.171     21.410      7.395  -2743.837     60.193 
  3049.200      7.058    141.968      3.509      5.442    214.092    215.900    -70.554    107.007      0.239    107.086    107.007    107.086    214.243    214.171     21.403      7.393  -2744.002     60.191 
  3049.400      6.943    138.972      3.424      5.702    214.066    215.900    -70.451    106.981      0.230    107.086    106.981    107.086    214.291    214.171     21.396      7.391  -2744.168     60.192 
  3049.600      6.856    136.867      3.400      5.912    214.019    215.900    -70.471    106.886      0.239    107.133    106.886    107.133    214.343    214.266     21.389      7.389  -2744.333     60.187 
  3049.800      7.082    135.567      3.325      6.018    214.119    215.900    -70.682    107.021      0.234    107.099    107.021    107.099    214.403    214.198     21.381      7.386  -2744.498     60.187 
  3050.000      7.103    135.832      3.325      6.044    213.955    215.900    -71.106    107.581      0.236    106.374    107.581    106.374    214.458    212.749     21.374      7.384  -2744.663     60.187 
  3050.200      7.327    136.887      3.226      5.978    214.003    215.900    -71.701    107.629      0.239    106.374    107.629    106.374    214.524    212.749     21.367      7.382  -2744.829     60.195 
  3050.400      6.967    138.826      3.251      5.941    213.329    215.900    -72.356    106.955      0.241    106.374    106.955    106.374    214.591    212.749     21.360      7.380  -2744.994     60.192 
  3050.600      6.978    139.263      3.325      5.854    214.010    215.900    -72.890    107.286      0.239    106.723    107.286    106.723    214.613    213.447     21.353      7.378  -2745.159     60.196 
  3050.800      6.631    138.385      3.396      5.792    214.757    215.900    -73.078    107.281      0.239    107.476    107.281    107.476    214.568    214.953     21.345      7.375  -2745.325     60.202 
  3051.000      7.188    137.714      3.524      5.736    215.020    215.900    -72.824    107.411      0.239    107.609    107.411    107.609    214.431    215.218     21.338      7.373  -2745.490     60.211 
  3051.200      7.144    140.373      3.912      5.570    214.687    215.900    -72.232    107.626      0.235    107.061    107.626    107.061    214.174    214.121     21.331      7.371  -2745.656     60.201 
  3051.400      7.448    143.846      4.231      5.422    214.115    215.900    -71.607    107.163      0.238    106.952    107.163    106.952    213.776    213.903     21.324      7.368  -2745.821     60.206 
  3051.600      7.843    145.278      4.417      5.305    214.516    215.900    -71.195    107.564      0.239    106.952    107.564    106.952    213.311    213.903     21.317      7.366  -2745.987     60.209 
  3051.800      7.504    142.026      4.530      5.181    212.489    215.900    -71.073    105.538      0.239    106.952    105.538    106.952    212.861    213.903     21.309      7.364  -2746.152     60.205 
  3052.000      6.876    134.701      4.688      5.214    212.481    215.900    -71.126    105.529      0.239    106.952    105.529    106.952    212.514    213.903     21.302      7.362  -2746.318     60.203 
  3052.200      6.579    126.012      4.979      5.327    212.488    215.900    -71.193    105.536      0.241    106.952    105.536    106.952    212.346    213.903     21.295      7.360  -2746.483     60.213 
  3052.400      6.645    115.166      5.578      5.518    213.503    215.900    -71.177    105.744      0.241    107.760    105.744    107.760    212.412    215.519     21.288      7.358  -2746.649     60.215 
  3052.600      6.635    102.355      6.154      5.813    214.286    215.900    -71.064    106.465      0.239    107.821    106.465    107.821    212.674    215.642     21.281      7.355  -2746.814     60.211 
  3052.800      7.000     88.949      6.965      6.416    214.286    215.900    -70.905    106.465      0.238    107.821    106.465    107.821    213.067    215.642     21.274      7.353  -2746.980     60.210 
  3053.000      6.975     80.589      7.851      6.812    214.829    215.900    -70.751    106.929      0.239    107.900    106.929    107.900    213.522    215.800     21.266      7.351  -2747.145     60.210 
  3053.200      6.613     79.340      9.001      7.358    214.876    215.900    -70.647    106.976      0.238    107.900    106.976    107.900    213.966    215.800     21.259      7.349  -2747.311     60.208 
  3053.400      6.950     81.186     10.241      7.913    215.319    215.900    -70.595    107.419      0.237    107.900    107.419    107.900    214.354    215.800     21.252      7.346  -2747.476     60.204 
  3053.600      6.877     81.081     11.621      8.331    215.332    215.900    -70.537    107.432      0.235    107.900    107.432    107.900    214.665    215.800     21.245      7.344  -2747.642     60.208 
  3053.800      7.048     80.018     13.152      8.626    215.507    215.900    -70.324    107.607      0.234    107.900    107.607    107.900    214.907    215.800     21.237      7.342  -2747.807     60.214 
  3054.000      7.415     80.740     14.094      8.758    215.588    215.900    -69.850    107.629      0.233    107.959    107.629    107.959    215.098    215.919     21.230      7.340  -2747.973     60.224 
  3054.200      7.282     84.861     13.837      8.809    215.529    215.900    -69.153    107.629      0.230    107.900    107.629    107.900    215.271    215.800     21.223      7.337  -2748.138     60.224 
  3054.400      7.562     90.987     12.867      8.741    216.478    215.900    -68.470    107.629      0.233    108.849    107.629    108.849    215.451    217.697     21.215      7.335  -2748.304     60.231 
  3054.600      6.536     96.036     11.602      8.604    216.478    215.900    -68.040    107.629      0.231    108.849    107.629    108.849    215.666    217.697     21.208      7.332  -2748.469     60.238 
  3054.800      6.568     99.582     10.624      8.549    217.135    215.900    -67.968    107.629      0.231    109.506    107.629    109.506    215.900    219.012     21.201      7.330  -2748.634     60.242 
  3055.000      6.585     99.379      9.479      8.400    216.759    215.900    -68.160    108.186      0.234    108.573    108.186    108.573    216.120    217.146     21.193      7.328  -2748.800     60.235 
  3055.200      7.636     98.129      8.958      8.400    216.837    215.900    -68.449    108.558      0.229    108.279    108.558    108.279    216.302    216.558     21.186      7.325  -2748.965     60.243 
  3055.400      7.694     95.953      8.940      8.361    216.873    215.900    -68.702    108.527      0.230    108.346    108.527    108.346    216.403    216.691     21.179      7.323  -2749.131     60.248 
  3055.600      7.973     95.286      9.267      8.075    217.097    215.900    -68.876    108.558      0.229    108.538    108.558    108.538    216.388    217.077     21.171      7.320  -2749.296     60.247 
  3055.800      8.533     95.932     10.034      7.704    215.997    215.900    -68.991    108.249      0.229    107.749    108.249    107.749    216.283    215.498     21.164      7.318  -2749.462     60.247 
  3056.000      8.827     97.962     11.246      7.001    215.299    215.900    -69.063    107.629      0.233    107.670    107.629    107.670    216.127    215.340     21.156      7.316  -2749.627     60.260 
  3056.200      9.901    103.896     11.960      6.412    215.659    215.900    -69.098    107.758      0.231    107.901    107.758    107.901    215.911    215.802     21.149      7.313  -2749.793     60.261 
  3056.400     11.209    113.834     11.780      5.703    216.663    215.900    -69.081    108.506      0.236    108.157    108.506    108.157    215.666    216.314     21.142      7.311  -2749.958     60.256 
