~Version Information
#-------------------
VERS.        2.0: CWLS log ASCII Standart - VERSION 2.0
WRAP.         NO: One line per depth step
~Well Information Block
#----------------------
#MNEM.UNIT  VALUE: DESCRIPTION
#----.---- -------: -------------
STRT.м                           3810: Начальная глубина
STOP.м                           4124: Конечная глубина
STEP.м                            0.2: Шаг квантования
NULL.                        -9999.99: Код отсутствия
COMP.               OOO "LUKOIL-Komi": Название организации
WELL.                             516: Наименование скважины
FLD .                     Inzyreyskoe: Наименование площади
LOC .                             NAO: Расположение скважины
CTRY.                          Russia: Название страны
SRVC.                            PNGG: Наим.орг-ции, проводившей каротаж
DATE.                        09.09.07: Дата регистрации каротажных данных
UWI .                                : Уникальный идентификатор скважины
~Parameter Information
#---------------------
#MNEM.UNIT      VALUE: DESCRIPTION
#----.----    -------: ---------------
FL  .       -9999.99: Расположение месторождения
~Curve Information Block
#-----------------------
#MNEM.UNIT          : CURVE DESCRIPTION
#---.----          : -----------------
DEPT.м             : Колонка глубины
GK  .UR/HR         : Гамма каротаж
DS  .MM            : Каверномер
~Other Information
#-----------------
tool=ДРСТ+локатор
mode=ГК отрицат.
id=18
~Ascii Log Data
# ...
  3857.200     10.360    159.352 
  3857.400      9.839    158.752 
  3857.600      9.179    159.548 
  3857.800      8.646    163.139 
  3858.000      8.617    168.322 
  3858.200      8.975    163.511 
  3858.400      9.789    162.187 
  3858.600     10.905    161.593 
  3858.800     12.101    160.181 
  3859.000     13.164    161.446 
  3859.200     14.179    160.554 
  3859.400     13.402    158.853 
  3859.600     11.917    159.523 
  3859.800      9.824    161.493 
  3860.000      8.702    161.829 
  3860.200      8.715    162.176 
  3860.400      8.986    166.560 
  3860.600      8.807    165.724 
  3860.800      8.649    160.991 
  3861.000      8.464    163.545 
  3861.200      9.143    160.883 
  3861.400     10.012    160.565 
  3861.600     11.351    160.887 
  3861.800     12.623    159.891 
  3862.000     13.368    160.069 
  3862.200     13.446    161.305 
  3862.400     13.050    161.506 
  3862.600     12.409    160.354 
  3862.800     11.696    160.024 
  3863.000     10.947    158.888 
  3863.200      9.772    159.005 
  3863.400      8.266    159.018 
  3863.600      7.430    159.517 
  3863.800      7.628    158.887 
  3864.000      7.622    158.663 
  3864.200      7.354    158.781 
  3864.400      7.301    158.991 
  3864.600      7.735    159.245 
  3864.800      7.823    159.281 
  3865.000      8.109    159.364 
  3865.200      8.520    160.390 
  3865.400      8.872    160.527 
  3865.600      8.431    160.661 
  3865.800      8.633    160.863 
  3866.000      8.949    161.140 
  3866.200      9.363    161.166 
  3866.400      9.869    160.878 
  3866.600     10.237    160.469 
  3866.800     10.304    160.557 
  3867.000     10.813    161.762 
  3867.200     11.898    168.085 
  3867.400     13.442    180.837 
  3867.600     15.071    178.526 
  3867.800     15.294    169.896 
  3868.000     14.054    159.054 
  3868.200     13.003    160.321 
  3868.400     11.733    161.788 
  3868.600     10.534    161.416 
  3868.800     10.974    162.809 
  3869.000     11.281    165.117 
  3869.200     11.350    174.218 
  3869.400     11.512    173.333 
  3869.600     10.913    186.947 
  3869.800     11.377    179.734 
  3870.000     11.463    166.828 
  3870.200      9.590    165.456 
  3870.400      7.514    169.053 
  3870.600      6.954    168.316 
  3870.800      7.078    171.108 
  3871.000      7.363    161.071 
  3871.200      7.701    163.176 
  3871.400      8.440    161.432 
  3871.600      8.818    160.121 
  3871.800      8.353    160.228 
  3872.000      8.167    159.808 
  3872.200      8.230    159.442 
  3872.400      8.572    160.040 
  3872.600      8.575    161.051 
  3872.800      8.519    160.924 
  3873.000      8.628    160.704 
  3873.200      8.848    162.260 
  3873.400      9.225    161.404 
  3873.600      9.951    161.742 
  3873.800     10.497    162.605 
  3874.000     11.164    163.080 
  3874.200     12.564    164.667 
  3874.400     13.914    164.617 
  3874.600     14.542    162.734 
  3874.800     14.309    163.521 
  3875.000     13.633    163.925 
  3875.200     13.020    166.873 
  3875.400     12.453    163.328 
  3875.600     11.706    163.466 
  3875.800     11.025    160.799 
  3876.000     10.542    160.719 
  3876.200     10.519    158.890 
  3876.400      9.894    160.351 
  3876.600      8.485    170.527 
  3876.800      7.458    174.922 
  3877.000      6.854    168.615 
  3877.200      6.969    164.823 
  3877.400      7.195    158.212 
  3877.600      7.636    158.047 
  3877.800      7.860    157.614 
  3878.000      8.531    157.234 
  3878.200      8.692    158.656 
  3878.400      8.512    158.283 
  3878.600      9.227    157.495 
  3878.800      9.666    156.900 
  3879.000     10.007    157.167 
  3879.200     10.371    158.039 
  3879.400     10.784    158.676 
  3879.600     11.422    160.527 
  3879.800     11.596    161.196 
  3880.000     11.164    159.788 
  3880.200     10.211    161.028 
  3880.400      9.359    160.656 
  3880.600      9.174    161.195 
  3880.800      9.664    163.046 
  3881.000     10.481    162.760 
  3881.200     11.443    164.246 
  3881.400     12.296    163.873 
  3881.600     12.584    170.416 
  3881.800     12.635    182.667 
  3882.000     13.476    187.146 
  3882.200     14.327    160.351 
  3882.400     13.519    159.276 
  3882.600     10.749    158.648 
  3882.800      9.427    159.139 
  3883.000      9.419    160.148 
  3883.200      9.810    159.225 
  3883.400     10.592    159.861 
  3883.600     11.424    160.789 
  3883.800     11.861    160.973 
  3884.000     11.740    160.311 
  3884.200     11.246    162.177 
  3884.400      9.364    159.102 
  3884.600      8.913    158.302 
  3884.800      9.404    158.342 
  3885.000     10.124    158.906 
  3885.200     11.013    159.049 
  3885.400     11.986    158.778 
  3885.600     12.122    158.928 
  3885.800     11.856    158.805 
  3886.000     10.934    158.705 
  3886.200     10.315    158.441 
  3886.400      9.222    159.327 
  3886.600      8.974    159.371 
  3886.800      9.334    160.496 
  3887.000      9.702    160.584 
  3887.200     10.378    162.256 
  3887.400     11.120    162.964 
  3887.600     11.825    162.735 
  3887.800     12.437    163.029 
  3888.000     13.192    162.751 
  3888.200     13.884    162.834 
  3888.400     13.671    161.865 
  3888.600     12.831    161.174 
  3888.800     11.749    160.924 
  3889.000     10.451    160.405 
  3889.200      9.909    159.801 
  3889.400     10.001    159.759 
  3889.600     10.387    158.946 
  3889.800     10.832    159.864 
  3890.000     11.218    159.891 
  3890.200     11.413    159.712 
  3890.400     11.818    159.731 
  3890.600     11.736    159.427 
  3890.800     11.435    159.573 
  3891.000     11.139    159.831 
  3891.200     10.830    159.696 
  3891.400     10.362    159.009 
  3891.600     10.107    159.196 
  3891.800      9.940    160.189 
  3892.000      9.123    160.067 
  3892.200      9.011    159.701 
  3892.400      9.306    158.960 
  3892.600      9.566    158.803 
  3892.800      9.373    160.247 
  3893.000      9.087    160.123 
  3893.200      8.196    161.362 
  3893.400      7.493    161.190 
  3893.600      7.229    161.928 
  3893.800      7.046    161.130 
  3894.000      6.476    162.093 
  3894.200      6.383    161.155 
  3894.400      6.601    161.287 
  3894.600      6.341    161.218 
  3894.800      5.976    161.354 
  3895.000      5.664    160.883 
  3895.200      5.483    159.243 
  3895.400      5.681    159.394 
  3895.600      6.061    159.092 
  3895.800      6.244    159.797 
  3896.000      6.331    161.269 
  3896.200      6.372    161.098 
  3896.400      6.652    160.798 
  3896.600      7.471    161.347 
  3896.800      8.057    161.071 
  3897.000      8.341    161.241 
  3897.200      8.417    161.762 
  3897.400      8.906    160.366 
  3897.600     10.302    159.997 
  3897.800     11.734    160.188 
  3898.000     12.853    160.238 
  3898.200     12.359    160.001 
  3898.400     11.570    160.106 
  3898.600     11.521    160.460 
  3898.800     11.887    160.454 
  3899.000     11.679    160.421 
  3899.200     11.438    160.444 
  3899.400     11.565    160.529 
  3899.600     11.870    160.913 
  3899.800     12.390    160.961 
  3900.000     13.031    162.066 
  3900.200     13.646    163.442 
  3900.400     14.454    174.871 
  3900.600     15.289    184.531 
  3900.800     16.007    183.833 
  3901.000     16.343    187.046 
  3901.200     16.415    187.721 
  3901.400     15.988    172.159 
  3901.600     15.480    165.370 
  3901.800     14.920    164.084 
  3902.000     14.330    163.314 
  3902.200     14.035    163.283 
  3902.400     13.598    163.154 
  3902.600     13.524    163.213 
  3902.800     13.544    163.351 
  3903.000     13.632    162.598 
  3903.200     13.942    162.193 
  3903.400     14.060    162.200 
  3903.600     13.618    162.257 
  3903.800     13.237    161.303 
  3904.000     12.872    160.405 
  3904.200     12.009    160.337 
