~Version Information
#-------------------
VERS.        2.0: CWLS log ASCII Standart - VERSION 2.0
WRAP.         NO: One line per depth step
~Well Information Block
#----------------------
#MNEM.UNIT  VALUE: DESCRIPTION
#----.---- -------: -------------
STRT.м                           3810: Начальная глубина
STOP.м                           4124: Конечная глубина
STEP.м                            0.2: Шаг квантования
NULL.                        -9999.99: Код отсутствия
COMP.               OOO "LUKOIL-Komi": Название организации
WELL.                             516: Наименование скважины
FLD .                     Inzyreyskoe: Наименование площади
LOC .                             NAO: Расположение скважины
CTRY.                          Russia: Название страны
SRVC.                            PNGG: Наим.орг-ции, проводившей каротаж
DATE.                        09.09.07: Дата регистрации каротажных данных
UWI .                                : Уникальный идентификатор скважины
~Parameter Information
#---------------------
#MNEM.UNIT      VALUE: DESCRIPTION
#----.----    -------: ---------------
FL  .       -9999.99: Расположение месторождения
~Curve Information Block
#-----------------------
#MNEM.UNIT          : CURVE DESCRIPTION
#---.----          : -----------------
DEPT.м             : Колонка глубины
GK  .UR/HR         : Гамма каротаж
DS  .MM            : Каверномер
~Other Information
#-----------------
tool=ДРСТ+локатор
mode=ГК отрицат.
id=18
~Ascii Log Data
# ...
  4046.000      6.091    156.040 
  4046.200      6.880    155.863 
  4046.400      6.715    155.805 
  4046.600      7.204    156.833 
  4046.800      7.716    155.123 
  4047.000      7.479    155.802 
  4047.200      6.442    155.793 
  4047.400      5.124    156.750 
  4047.600      4.205    155.493 
  4047.800      3.342    157.635 
  4048.000      2.683    158.111 
  4048.200      2.510    158.647 
  4048.400      2.493    157.407 
  4048.600      2.559    158.277 
  4048.800      2.567    157.339 
  4049.000      2.784    159.531 
  4049.200      2.740    157.618 
  4049.400      2.631    158.154 
  4049.600      2.531    156.917 
  4049.800      2.647    156.889 
  4050.000      2.564    156.743 
  4050.200      2.501    156.071 
  4050.400      2.629    155.395 
  4050.600      2.699    156.085 
  4050.800      2.891    157.335 
  4051.000      3.120    156.538 
  4051.200      3.280    154.589 
  4051.400      3.710    154.634 
  4051.600      4.160    156.358 
  4051.800      4.671    155.104 
  4052.000      5.203    154.746 
  4052.200      5.593    155.216 
  4052.400      5.254    155.542 
  4052.600      4.829    155.362 
  4052.800      4.788    153.605 
  4053.000      5.255    152.910 
  4053.200      5.762    153.402 
  4053.400      6.357    155.978 
  4053.600      7.175    155.919 
  4053.800      7.879    156.054 
  4054.000      7.585    156.626 
  4054.200      8.364    155.630 
  4054.400      8.611    156.994 
  4054.600      7.733    158.077 
  4054.800      7.014    157.520 
  4055.000      5.541    157.502 
  4055.200      3.842    158.600 
  4055.400      2.862    157.301 
  4055.600      2.632    158.055 
  4055.800      2.488    155.396 
  4056.000      2.328    156.661 
  4056.200      2.422    155.436 
  4056.400      2.457    156.897 
  4056.600      2.741    157.469 
  4056.800      2.944    156.128 
  4057.000      3.045    155.290 
  4057.200      2.900    154.381 
  4057.400      3.036    155.418 
  4057.600      3.124    153.449 
  4057.800      2.831    153.797 
  4058.000      2.797    154.865 
  4058.200      2.773    154.884 
  4058.400      2.843    154.148 
  4058.600      2.882    153.728 
  4058.800      3.093    154.287 
  4059.000      3.212    154.472 
  4059.200      3.530    155.967 
  4059.400      3.944    154.675 
  4059.600      4.447    155.170 
  4059.800      5.077    155.908 
  4060.000      5.750    155.395 
  4060.200      6.015    153.568 
  4060.400      5.417    155.915 
  4060.600      4.196    154.697 
  4060.800      3.587    156.906 
  4061.000      3.399    156.344 
  4061.200      3.292    157.923 
  4061.400      2.985    155.948 
  4061.600      3.012    156.955 
  4061.800      2.783    156.863 
  4062.000      3.039    157.655 
  4062.200      3.212    156.339 
  4062.400      3.358    155.903 
  4062.600      3.320    158.044 
  4062.800      3.648    156.262 
  4063.000      3.899    156.791 
  4063.200      4.475    157.153 
  4063.400      5.143    157.141 
  4063.600      6.043    157.417 
  4063.800      7.273    156.785 
  4064.000      8.741    159.834 
  4064.200     10.141    162.954 
  4064.400     11.390    159.586 
  4064.600     12.120    161.697 
  4064.800     12.402    161.391 
  4065.000     12.489    162.349 
  4065.200     12.616    162.031 
  4065.400     12.400    163.049 
  4065.600     12.160    166.526 
  4065.800     11.698    162.579 
  4066.000     10.660    160.999 
  4066.200      9.221    158.624 
  4066.400      8.476    158.200 
  4066.600      7.912    157.785 
  4066.800      7.978    157.406 
  4067.000      7.294    155.681 
  4067.200      6.503    155.073 
  4067.400      5.465    154.012 
  4067.600      4.703    154.501 
  4067.800      4.165    155.545 
  4068.000      3.525    155.636 
  4068.200      3.203    157.215 
  4068.400      3.413    158.214 
  4068.600      3.611    158.255 
  4068.800      3.510    160.024 
  4069.000      3.413    157.772 
  4069.200      3.365    159.335 
  4069.400      3.357    158.028 
  4069.600      3.745    158.998 
  4069.800      4.305    158.723 
  4070.000      4.919    158.104 
  4070.200      5.460    158.911 
  4070.400      5.744    158.774 
  4070.600      6.163    157.815 
  4070.800      7.104    157.058 
  4071.000      8.355    156.221 
  4071.200      8.735    156.741 
  4071.400      8.239    156.600 
  4071.600      7.904    154.620 
  4071.800      6.802    155.044 
  4072.000      5.014    155.820 
  4072.200      4.104    156.503 
  4072.400      3.740    157.452 
  4072.600      3.656    157.156 
  4072.800      3.850    157.932 
  4073.000      3.823    158.825 
  4073.200      3.984    158.922 
  4073.400      4.005    158.505 
  4073.600      3.880    158.267 
  4073.800      3.131    157.838 
  4074.000      2.383    157.716 
  4074.200      2.395    157.547 
  4074.400      2.472    157.671 
  4074.600      2.648    156.804 
  4074.800      2.778    156.554 
  4075.000      2.871    156.345 
  4075.200      3.014    155.529 
  4075.400      3.199    155.460 
  4075.600      3.326    154.496 
  4075.800      3.547    155.251 
  4076.000      3.690    155.499 
  4076.200      3.752    155.990 
  4076.400      3.947    156.456 
  4076.600      4.250    157.506 
  4076.800      3.959    156.215 
  4077.000      3.893    155.528 
  4077.200      3.477    155.092 
  4077.400      3.036    155.161 
  4077.600      2.411    155.454 
  4077.800      2.411    155.532 
  4078.000      2.427    155.531 
  4078.200      2.468    155.399 
  4078.400      2.564    156.158 
  4078.600      2.892    156.379 
  4078.800      3.158    156.401 
  4079.000      3.425    157.294 
  4079.200      3.718    157.453 
  4079.400      4.221    157.575 
  4079.600      4.966    159.960 
  4079.800      5.936    165.118 
  4080.000      6.965    157.134 
  4080.200      7.166    156.411 
  4080.400      5.433    156.628 
  4080.600      5.571    156.488 
  4080.800      6.441    157.729 
  4081.000      7.645    157.903 
  4081.200      8.956    158.599 
  4081.400     10.174    159.653 
  4081.600     11.531    160.412 
  4081.800     12.115    162.881 
  4082.000     11.570    165.780 
  4082.200     11.119    163.090 
  4082.400     10.601    162.599 
  4082.600      9.942    158.906 
  4082.800      9.340    158.814 
  4083.000      8.546    160.703 
  4083.200      8.418    171.233 
  4083.400      8.634    162.797 
  4083.600      9.251    158.952 
  4083.800     10.176    159.568 
  4084.000     11.046    159.109 
  4084.200     10.960    159.027 
  4084.400     10.198    158.530 
  4084.600      9.671    157.385 
  4084.800      9.155    157.497 
  4085.000      8.633    158.106 
  4085.200      8.407    163.203 
  4085.400      7.893    158.685 
  4085.600      7.145    155.504 
  4085.800      7.262    155.547 
  4086.000      6.956    155.607 
  4086.200      6.088    156.272 
  4086.400      5.871    156.525 
  4086.600      6.107    156.701 
  4086.800      6.897    158.122 
  4087.000      8.162    158.017 
  4087.200      9.767    159.143 
  4087.400     11.470    159.868 
  4087.600     12.861    159.813 
  4087.800     13.645    159.676 
  4088.000     12.808    160.426 
  4088.200     11.994    162.140 
  4088.400     11.317    172.537 
  4088.600     11.006    163.356 
  4088.800     11.135    161.733 
  4089.000     11.818    160.977 
  4089.200     12.259    162.632 
  4089.400     12.371    161.248 
  4089.600     12.615    160.272 
  4089.800     12.368    159.314 
  4090.000     11.978    158.089 
  4090.200     11.717    158.678 
  4090.400     11.685    158.721 
  4090.600     12.236    159.902 
  4090.800     12.559    158.618 
  4091.000     12.742    161.014 
  4091.200     12.702    164.504 
  4091.400     12.642    157.830 
  4091.600     12.844    156.900 
  4091.800     12.738    155.858 
  4092.000     12.413    156.385 
  4092.200     12.123    156.673 
  4092.400     11.985    157.123 
  4092.600     12.045    156.155 
  4092.800     11.690    156.121 
  4093.000     11.623    156.791 
