~Version Information
#-------------------
VERS.        2.0: CWLS log ASCII Standart - VERSION 2.0
WRAP.         NO: One line per depth step
~Well Information Block
#----------------------
#MNEM.UNIT  VALUE: DESCRIPTION
#----.---- -------: -------------
STRT.м                           3810: Начальная глубина
STOP.м                           4124: Конечная глубина
STEP.м                            0.2: Шаг квантования
NULL.                        -9999.99: Код отсутствия
COMP.               OOO "LUKOIL-Komi": Название организации
WELL.                             516: Наименование скважины
FLD .                     Inzyreyskoe: Наименование площади
LOC .                             NAO: Расположение скважины
CTRY.                          Russia: Название страны
SRVC.                            PNGG: Наим.орг-ции, проводившей каротаж
DATE.                        09.09.07: Дата регистрации каротажных данных
UWI .                                : Уникальный идентификатор скважины
~Parameter Information
#---------------------
#MNEM.UNIT      VALUE: DESCRIPTION
#----.----    -------: ---------------
FL  .       -9999.99: Расположение месторождения
~Curve Information Block
#-----------------------
#MNEM.UNIT          : CURVE DESCRIPTION
#---.----          : -----------------
DEPT.м             : Колонка глубины
GK  .UR/HR         : Гамма каротаж
DS  .MM            : Каверномер
~Other Information
#-----------------
tool=ДРСТ+локатор
mode=ГК отрицат.
id=18
~Ascii Log Data
# ...
  4093.200     12.765    157.031 
  4093.400     12.807    158.355 
  4093.600     12.495    159.190 
  4093.800     11.944    158.240 
  4094.000     10.913    159.325 
  4094.200     10.327    159.553 
  4094.400     10.004    159.828 
  4094.600      9.977    160.650 
  4094.800      9.572    161.005 
  4095.000      8.900    158.547 
  4095.200      8.147    158.448 
  4095.400      6.457    161.984 
  4095.600      6.041    157.391 
  4095.800      6.106    157.489 
  4096.000      5.138    157.921 
  4096.200      4.887    157.298 
  4096.400      4.719    156.952 
  4096.600      5.194    157.799 
  4096.800      5.869    158.526 
  4097.000      6.685    160.122 
  4097.200      7.701    158.867 
  4097.400      8.732    158.480 
  4097.600      9.691    158.575 
  4097.800     10.736    158.101 
  4098.000     10.043    159.208 
  4098.200      9.360    157.997 
  4098.400      8.395    157.786 
  4098.600      7.134    157.524 
  4098.800      6.413    156.704 
  4099.000      6.445    156.475 
  4099.200      6.648    156.810 
  4099.400      6.648    156.840 
  4099.600      6.715    157.587 
  4099.800      6.940    157.949 
  4100.000      6.771    156.588 
  4100.200      6.859    157.603 
  4100.400      6.757    156.925 
  4100.600      6.896    156.618 
  4100.800      6.629    155.426 
  4101.000      6.342    154.541 
  4101.200      6.002    156.538 
  4101.400      5.341    156.952 
  4101.600      4.627    157.352 
  4101.800      4.650    157.349 
  4102.000      4.797    157.851 
  4102.200      4.446    158.847 
  4102.400      3.651    159.361 
  4102.600      3.233    159.064 
  4102.800      3.235    161.184 
  4103.000      3.345    160.917 
  4103.200      3.551    157.768 
  4103.400      3.691    156.466 
  4103.600      3.426    157.176 
  4103.800      3.090    156.436 
  4104.000      3.429    156.347 
  4104.200      3.543    157.273 
  4104.400      3.996    156.756 
  4104.600      4.420    157.513 
  4104.800      5.041    157.514 
  4105.000      5.914    158.085 
  4105.200      6.655    157.391 
  4105.400      6.963    157.329 
  4105.600      7.860    157.441 
  4105.800      9.318    158.815 
  4106.000      9.715    160.969 
  4106.200      9.504    167.048 
  4106.400      9.598    195.956 
  4106.600     10.553    166.564 
  4106.800     11.151    157.611 
  4107.000     10.101    158.925 
  4107.200      8.485    172.336 
  4107.400      7.391    159.038 
  4107.600      6.219    155.062 
  4107.800      6.073    155.189 
  4108.000      6.289    155.597 
  4108.200      6.480    155.950 
  4108.400      6.441    156.222 
  4108.600      6.284    157.752 
  4108.800      6.469    154.337 
  4109.000      6.579    152.928 
  4109.200      6.625    154.295 
  4109.400      7.105    153.696 
  4109.600      7.617    153.947 
  4109.800      7.595    153.616 
  4110.000      7.708    153.634 
  4110.200      6.813    153.301 
  4110.400      5.045    153.132 
  4110.600      3.871    152.973 
  4110.800      3.631    151.909 
  4111.000      3.667    151.891 
  4111.200      3.682    152.461 
  4111.400      3.328    151.561 
  4111.600      3.197    150.962 
  4111.800      3.084    150.650 
  4112.000      3.144    149.788 
  4112.200      3.305    148.700 
  4112.400      3.533    149.478 
  4112.600      3.710    148.733 
  4112.800      4.233    149.409 
  4113.000      4.515    149.764 
  4113.200      4.559    148.584 
  4113.400      4.903    148.050 
  4113.600      5.502    148.955 
  4113.800      6.400    150.003 
  4114.000      7.656    152.330 
  4114.200      8.977    150.759 
  4114.400     10.658    150.343 
  4114.600     11.815    151.169 
  4114.800     11.338    149.908 
  4115.000      9.901    148.896 
  4115.200      8.063    148.766 
  4115.400      6.216    148.301 
  4115.600      5.193    147.222 
  4115.800      4.378    147.838 
  4116.000      3.988    147.866 
  4116.200      3.649    147.305 
  4116.400      3.370    145.649 
  4116.600      3.279    145.722 
  4116.800      3.345    145.706 
  4117.000      3.240    144.531 
  4117.200      3.229    144.608 
  4117.400      3.294    144.623 
  4117.600      3.310    144.603 
  4117.800      3.336    144.910 
  4118.000      3.389    144.552 
  4118.200      3.328    144.527 
  4118.400      3.384    144.574 
  4118.600      3.291    144.559 
  4118.800      3.296    144.529 
  4119.000      3.297    144.540 
  4119.200      3.332    144.529 
  4119.400      3.239    144.469 
  4119.600      3.295    144.538 
  4119.800      3.236    144.530 
  4120.000      3.277    144.520 
  4120.200      3.164    144.611 
  4120.400      3.197    144.549 
  4120.600      3.148    144.584 
  4120.800      3.037    144.554 
  4121.000      3.148    144.583 
  4121.200      3.156    144.508 
  4121.400      3.163    144.452 
  4121.600      3.153    144.532 
  4121.800      3.049    144.516 
  4122.000      2.970    144.578 
  4122.200      2.986    144.558 
  4122.400      3.142    144.466 
  4122.600      3.188    144.495 
  4122.800      3.250    144.527 
  4123.000      3.186    144.427 
  4123.200      3.267    144.456 
  4123.400      3.192    144.464 
  4123.600      3.271    144.467 
  4123.800      3.383  -9999.990 
  4124.000      3.344  -9999.990 
