~Version Information
#-------------------
VERS.        2.0: CWLS log ASCII Standart - VERSION 2.0
WRAP.         NO: One line per depth step
~Well Information Block
#----------------------
#MNEM.UNIT  VALUE: DESCRIPTION
#----.---- -------: -------------
STRT.м                           3810: Начальная глубина
STOP.м                           4124: Конечная глубина
STEP.м                            0.2: Шаг квантования
NULL.                        -9999.99: Код отсутствия
COMP.               OOO "LUKOIL-Komi": Название организации
WELL.                             516: Наименование скважины
FLD .                     Inzyreyskoe: Наименование площади
LOC .                             NAO: Расположение скважины
CTRY.                          Russia: Название страны
SRVC.                            PNGG: Наим.орг-ции, проводившей каротаж
DATE.                        09.09.07: Дата регистрации каротажных данных
UWI .                                : Уникальный идентификатор скважины
~Parameter Information
#---------------------
#MNEM.UNIT      VALUE: DESCRIPTION
#----.----    -------: ---------------
FL  .       -9999.99: Расположение месторождения
~Curve Information Block
#-----------------------
#MNEM.UNIT          : CURVE DESCRIPTION
#---.----          : -----------------
DEPT.м             : Колонка глубины
GK  .UR/HR         : Гамма каротаж
DS  .MM            : Каверномер
~Other Information
#-----------------
tool=ДРСТ+локатор
mode=ГК отрицат.
id=18
~Ascii Log Data
  3810.000      3.456    161.563 
  3810.200      3.560    161.315 
  3810.400      3.513    161.636 
  3810.600      3.554    162.709 
  3810.800      3.391    162.642 
  3811.000      3.511    161.917 
  3811.200      3.436    163.112 
  3811.400      3.408    162.433 
  3811.600      3.555    162.261 
  3811.800      3.613    163.755 
  3812.000      3.663    162.592 
  3812.200      3.902    161.499 
  3812.400      4.230    162.267 
  3812.600      4.565    163.633 
  3812.800      5.077    162.985 
  3813.000      5.595    162.330 
  3813.200      6.111    162.812 
  3813.400      6.553    163.353 
  3813.600      6.804    164.522 
  3813.800      6.500    164.567 
  3814.000      6.379    164.486 
  3814.200      6.359    164.577 
  3814.400      6.104    164.987 
  3814.600      6.180    164.871 
  3814.800      6.444    164.856 
  3815.000      7.262    165.411 
  3815.200      7.756    166.155 
  3815.400      7.973    166.742 
  3815.600      8.039    167.880 
  3815.800      8.026    168.400 
  3816.000      8.259    167.971 
  3816.200      8.678    168.724 
  3816.400      9.506    165.763 
  3816.600      9.040    165.581 
  3816.800      9.111    168.314 
  3817.000      9.422    167.788 
  3817.200      8.855    166.066 
  3817.400      7.776    166.819 
  3817.600      7.405    167.278 
  3817.800      7.710    167.424 
  3818.000      8.269    166.373 
  3818.200      8.887    166.646 
  3818.400      9.794    170.106 
  3818.600     10.939    171.959 
  3818.800     12.143    169.440 
  3819.000     13.555    168.002 
  3819.200     15.124    168.860 
  3819.400     15.993    170.461 
  3819.600     16.228    170.961 
  3819.800     16.981    171.464 
  3820.000     17.465    172.151 
  3820.200     17.307    173.541 
  3820.400     17.414    173.989 
  3820.600     17.576    174.342 
  3820.800     17.535    174.416 
  3821.000     17.347    174.615 
  3821.200     17.121    175.140 
  3821.400     17.455    175.776 
  3821.600     17.443    176.907 
  3821.800     17.437    177.619 
  3822.000     17.158    177.927 
  3822.200     16.870    176.880 
  3822.400     16.602    173.825 
  3822.600     16.019    171.684 
  3822.800     15.269    173.284 
  3823.000     14.975    173.892 
  3823.200     14.660    172.901 
  3823.400     14.078    174.002 
  3823.600     14.483    175.023 
  3823.800     14.908    176.577 
  3824.000     15.513    174.558 
  3824.200     15.335    173.735 
  3824.400     15.054    174.830 
  3824.600     14.595    176.637 
  3824.800     13.945    179.711 
  3825.000     14.175    181.227 
  3825.200     14.464    177.575 
  3825.400     14.495    177.530 
  3825.600     14.024    179.247 
  3825.800     13.753    181.701 
  3826.000     14.002    183.402 
  3826.200     14.059    184.385 
  3826.400     13.579    175.470 
  3826.600     13.999    174.793 
  3826.800     13.883    174.335 
  3827.000     14.167    174.257 
  3827.200     14.325    174.246 
  3827.400     13.635    174.332 
  3827.600     13.067    174.368 
  3827.800     13.104    175.252 
  3828.000     12.939    175.566 
  3828.200     13.404    176.688 
  3828.400     14.180    178.303 
  3828.600     15.187    178.567 
  3828.800     15.837    184.516 
  3829.000     15.818    189.592 
  3829.200     15.457    182.584 
  3829.400     15.336    183.401 
  3829.600     16.161    187.399 
  3829.800     16.176    182.441 
  3830.000     16.392    182.084 
  3830.200     16.477    183.612 
  3830.400     16.329    185.500 
  3830.600     16.412    188.753 
  3830.800     16.588    190.813 
  3831.000     16.631    192.916 
  3831.200     16.533    189.297 
  3831.400     16.906    190.179 
  3831.600     16.941    190.151 
  3831.800     16.936    191.735 
  3832.000     16.813    191.387 
  3832.200     16.697    194.200 
  3832.400     16.729    192.057 
  3832.600     16.541    193.316 
  3832.800     16.483    191.579 
  3833.000     16.148    191.191 
  3833.200     15.669    189.150 
  3833.400     15.460    181.203 
  3833.600     15.299    186.155 
  3833.800     14.817    184.222 
  3834.000     14.218    192.802 
  3834.200     13.887    188.194 
  3834.400     13.939    187.479 
  3834.600     13.596    188.390 
  3834.800     13.379    186.985 
  3835.000     12.441    187.269 
  3835.200     11.942    185.014 
  3835.400     10.898    186.961 
  3835.600      9.573    170.422 
  3835.800      8.150    168.843 
  3836.000      6.335    168.065 
  3836.200      5.672    167.699 
  3836.400      5.815    168.737 
  3836.600      5.501    169.256 
  3836.800      6.206    171.043 
  3837.000      6.590    172.516 
  3837.200      6.801    171.785 
  3837.400      7.072    173.041 
  3837.600      7.229    170.997 
  3837.800      7.070    170.089 
  3838.000      6.890    169.616 
  3838.200      6.979    170.393 
  3838.400      7.146    171.149 
  3838.600      7.453    171.436 
  3838.800      8.128    172.168 
  3839.000      9.069    171.212 
  3839.200      9.786    171.393 
  3839.400     10.209    171.437 
  3839.600     10.579    172.061 
  3839.800     10.374    173.248 
  3840.000     10.243    173.542 
  3840.200      9.955    173.001 
  3840.400      9.819    172.780 
  3840.600     10.008    170.725 
  3840.800     10.427    169.154 
  3841.000     10.398    168.142 
  3841.200      9.402    166.502 
  3841.400      8.006    164.971 
  3841.600      7.258    166.273 
  3841.800      6.513    162.447 
  3842.000      6.224    162.241 
  3842.200      6.409    161.658 
  3842.400      7.016    160.458 
  3842.600      7.629    165.044 
  3842.800      7.780    171.647 
  3843.000      8.080    168.841 
  3843.200      8.701    165.627 
  3843.400      9.328    162.677 
  3843.600     10.176    160.521 
  3843.800     11.280    160.959 
  3844.000     12.197    160.761 
  3844.200     12.323    160.605 
  3844.400     12.603    160.407 
  3844.600     12.245    160.078 
  3844.800     12.027    159.877 
  3845.000     11.586    160.169 
  3845.200     10.826    163.157 
  3845.400     10.161    163.940 
  3845.600     10.008    162.233 
  3845.800     10.008    161.077 
  3846.000     10.327    162.474 
  3846.200     11.590    161.822 
  3846.400     12.649    164.449 
  3846.600     13.821    163.372 
  3846.800     14.988    163.994 
  3847.000     15.614    162.108 
  3847.200     15.955    161.214 
  3847.400     15.790    161.964 
  3847.600     14.929    162.298 
  3847.800     14.786    161.106 
  3848.000     14.454    162.518 
  3848.200     13.291    163.222 
  3848.400     12.679    163.426 
  3848.600     13.209    162.901 
  3848.800     13.670    160.326 
  3849.000     12.890    160.708 
  3849.200     13.223    162.240 
  3849.400     14.382    160.633 
  3849.600     14.922    160.821 
  3849.800     15.608    161.350 
  3850.000     15.404    161.417 
  3850.200     15.172    164.659 
  3850.400     14.781    171.249 
  3850.600     14.704    168.678 
  3850.800     14.495    161.270 
  3851.000     13.541    163.168 
  3851.200     12.696    160.025 
  3851.400     11.891    159.006 
  3851.600     10.585    161.010 
  3851.800      9.065    165.875 
  3852.000      7.627    159.067 
  3852.200      7.141    160.779 
  3852.400      7.154    166.970 
  3852.600      6.906    159.792 
  3852.800      5.874    161.077 
  3853.000      5.566    158.693 
  3853.200      5.838    158.223 
  3853.400      6.137    159.694 
  3853.600      6.394    164.028 
  3853.800      6.947    171.715 
  3854.000      7.638    167.610 
  3854.200      8.736    159.972 
  3854.400      9.599    160.708 
  3854.600     10.673    160.532 
  3854.800     10.945    160.905 
  3855.000     11.554    164.667 
  3855.200     10.801    167.654 
  3855.400      9.823    165.799 
  3855.600      9.768    178.270 
  3855.800     10.129    173.491 
  3856.000     10.264    158.980 
  3856.200     11.184    158.011 
  3856.400     12.045    158.801 
  3856.600     11.947    157.797 
  3856.800     11.416    158.932 
  3857.000     10.879    159.698 
