~Version Information
#-------------------
VERS.        2.0: CWLS log ASCII Standart - VERSION 2.0
WRAP.         NO: One line per depth step
~Well Information Block
#----------------------
#MNEM.UNIT  VALUE: DESCRIPTION
#----.---- -------: -------------
STRT.м                           3810: Начальная глубина
STOP.м                           4124: Конечная глубина
STEP.м                            0.2: Шаг квантования
NULL.                        -9999.99: Код отсутствия
COMP.               OOO "LUKOIL-Komi": Название организации
WELL.                             516: Наименование скважины
FLD .                     Inzyreyskoe: Наименование площади
LOC .                             NAO: Расположение скважины
CTRY.                          Russia: Название страны
SRVC.                            PNGG: Наим.орг-ции, проводившей каротаж
DATE.                        09.09.07: Дата регистрации каротажных данных
UWI .                                : Уникальный идентификатор скважины
~Parameter Information
#---------------------
#MNEM.UNIT      VALUE: DESCRIPTION
#----.----    -------: ---------------
FL  .       -9999.99: Расположение месторождения
~Curve Information Block
#-----------------------
#MNEM.UNIT          : CURVE DESCRIPTION
#---.----          : -----------------
DEPT.м             : Колонка глубины
GK  .UR/HR         : Гамма каротаж
DS  .MM            : Каверномер
~Other Information
#-----------------
tool=ДРСТ+локатор
mode=ГК отрицат.
id=18
~Ascii Log Data
# ...
  3998.800     19.416    209.316 
  3999.000     18.840    234.319 
  3999.200     18.216    256.858 
  3999.400     17.825    231.047 
  3999.600     17.792    230.781 
  3999.800     17.746    229.184 
  4000.000     18.208    266.829 
  4000.200     18.480    252.828 
  4000.400     18.338    197.306 
  4000.600     18.873    196.901 
  4000.800     19.195    193.607 
  4001.000     19.310    197.947 
  4001.200     19.303    203.248 
  4001.400     19.749    202.758 
  4001.600     20.229    198.728 
  4001.800     20.163    206.571 
  4002.000     19.750    199.416 
  4002.200     19.544    193.132 
  4002.400     19.735    189.230 
  4002.600     20.255    187.686 
  4002.800     19.812    186.714 
  4003.000     20.085    187.227 
  4003.200     20.008    188.125 
  4003.400     19.907    203.730 
  4003.600     20.121    200.043 
  4003.800     20.128    196.485 
  4004.000     19.630    195.336 
  4004.200     19.721    197.589 
  4004.400     19.693    194.019 
  4004.600     19.507    204.131 
  4004.800     19.025    224.205 
  4005.000     18.927    254.684 
  4005.200     18.776    229.796 
  4005.400     18.761    232.210 
  4005.600     19.072    228.299 
  4005.800     18.943    219.197 
  4006.000     19.248    206.301 
  4006.200     19.653    209.072 
  4006.400     19.741    213.377 
  4006.600     19.411    210.790 
  4006.800     18.891    209.603 
  4007.000     18.808    212.779 
  4007.200     18.909    216.246 
  4007.400     18.824    206.269 
  4007.600     19.156    203.370 
  4007.800     18.766    213.404 
  4008.000     18.559    205.206 
  4008.200     18.406    199.638 
  4008.400     18.119    207.358 
  4008.600     18.359    210.148 
  4008.800     18.418    212.139 
  4009.000     18.445    201.286 
  4009.200     18.801    201.202 
  4009.400     19.085    197.448 
  4009.600     19.153    191.251 
  4009.800     19.089    198.252 
  4010.000     19.193    202.333 
  4010.200     19.601    221.220 
  4010.400     19.579    242.806 
  4010.600     19.392    231.148 
  4010.800     19.424    225.923 
  4011.000     19.378    229.843 
  4011.200     19.225    232.361 
  4011.400     18.720    231.742 
  4011.600     19.000    220.196 
  4011.800     18.997    194.357 
  4012.000     19.160    207.583 
  4012.200     19.188    216.646 
  4012.400     19.506    247.730 
  4012.600     19.074    191.458 
  4012.800     18.774    216.565 
  4013.000     18.956    199.717 
  4013.200     18.717    178.641 
  4013.400     19.141    192.578 
  4013.600     18.901    238.487 
  4013.800     19.186    255.104 
  4014.000     18.745    269.006 
  4014.200     18.229    196.736 
  4014.400     17.908    170.923 
  4014.600     17.832    169.963 
  4014.800     17.669    172.001 
  4015.000     17.773    188.113 
  4015.200     17.239    197.647 
  4015.400     17.550    219.911 
  4015.600     18.510    259.595 
  4015.800     18.025    230.037 
  4016.000     17.770    172.003 
  4016.200     18.045    169.973 
  4016.400     18.678    167.866 
  4016.600     19.129    168.387 
  4016.800     20.282    175.502 
  4017.000     20.533    174.869 
  4017.200     20.623    172.614 
  4017.400     20.724    171.924 
  4017.600     20.400    168.043 
  4017.800     19.847    182.118 
  4018.000     19.030    166.490 
  4018.200     18.126    173.064 
  4018.400     17.697    171.535 
  4018.600     16.859    166.460 
  4018.800     15.533    170.041 
  4019.000     14.872    159.650 
  4019.200     14.039    156.804 
  4019.400     12.911    155.160 
  4019.600     12.015    155.294 
  4019.800     11.947    155.310 
  4020.000     12.368    155.214 
  4020.200     12.931    155.686 
  4020.400     13.194    156.211 
  4020.600     14.093    156.941 
  4020.800     14.619    158.749 
  4021.000     15.266    162.291 
  4021.200     15.274    164.393 
  4021.400     15.286    159.416 
  4021.600     14.141    157.522 
  4021.800     12.373    158.540 
  4022.000     11.084    158.065 
  4022.200     10.226    159.002 
  4022.400     10.394    158.680 
  4022.600     11.151    159.282 
  4022.800     11.932    160.159 
  4023.000     13.242    161.958 
  4023.200     14.823    161.412 
  4023.400     16.923    161.935 
  4023.600     18.664    164.714 
  4023.800     19.724    174.169 
  4024.000     20.277    171.764 
  4024.200     20.393    167.594 
  4024.400     19.529    165.250 
  4024.600     18.384    164.494 
  4024.800     18.306    165.101 
  4025.000     18.175    170.750 
  4025.200     18.205    164.227 
  4025.400     18.193    163.046 
  4025.600     17.583    163.067 
  4025.800     16.910    162.626 
  4026.000     16.776    165.445 
  4026.200     17.065    165.850 
  4026.400     17.301    166.295 
  4026.600     17.190    167.248 
  4026.800     16.848    167.420 
  4027.000     16.677    167.719 
  4027.200     16.284    166.241 
  4027.400     16.096    163.740 
  4027.600     15.116    161.415 
  4027.800     14.004    161.132 
  4028.000     12.946    154.904 
  4028.200     12.825    154.693 
  4028.400     12.258    157.182 
  4028.600     11.133    160.630 
  4028.800     10.664    158.092 
  4029.000      9.771    156.575 
  4029.200      8.022    157.021 
  4029.400      7.896    158.852 
  4029.600      8.028    158.588 
  4029.800      8.574    158.562 
  4030.000      9.181    157.954 
  4030.200     10.447    159.682 
  4030.400     11.764    160.075 
  4030.600     12.844    159.594 
  4030.800     12.478    159.062 
  4031.000     11.438    159.766 
  4031.200     11.160    160.304 
  4031.400     11.519    160.515 
  4031.600     12.110    161.875 
  4031.800     12.458    161.260 
  4032.000     11.048    159.879 
  4032.200     10.061    158.710 
  4032.400      9.174    159.089 
  4032.600      9.010    159.656 
  4032.800      9.055    157.359 
  4033.000      8.907    155.131 
  4033.200      8.251    155.957 
  4033.400      7.852    156.690 
  4033.600      8.417    158.393 
  4033.800      8.908    157.697 
  4034.000      9.603    158.561 
  4034.200      9.918    157.381 
  4034.400      9.574    154.871 
  4034.600      9.752    155.729 
  4034.800      9.902    156.845 
  4035.000     10.056    155.670 
  4035.200      9.562    156.605 
  4035.400      8.247    156.659 
  4035.600      7.352    157.542 
  4035.800      6.432    156.615 
  4036.000      6.246    157.166 
  4036.200      6.314    158.188 
  4036.400      6.557    157.873 
  4036.600      5.588    158.139 
  4036.800      5.506    158.486 
  4037.000      5.905    158.266 
  4037.200      6.281    158.482 
  4037.400      6.592    157.339 
  4037.600      6.442    156.658 
  4037.800      5.938    155.721 
  4038.000      5.563    155.740 
  4038.200      5.321    155.853 
  4038.400      5.082    156.307 
  4038.600      5.108    156.302 
  4038.800      4.641    156.982 
  4039.000      4.374    155.603 
  4039.200      4.095    155.472 
  4039.400      3.802    155.243 
  4039.600      3.881    155.007 
  4039.800      4.158    154.733 
  4040.000      4.377    154.118 
  4040.200      4.636    154.865 
  4040.400      5.137    155.012 
  4040.600      5.574    155.988 
  4040.800      5.773    158.739 
  4041.000      6.395    157.340 
  4041.200      7.196    159.822 
  4041.400      7.695    158.243 
  4041.600      8.257    156.884 
  4041.800      8.869    160.252 
  4042.000      8.931    159.065 
  4042.200      9.366    158.916 
  4042.400      9.170    161.131 
  4042.600      8.446    157.980 
  4042.800      7.275    157.882 
  4043.000      6.274    157.711 
  4043.200      6.171    157.898 
  4043.400      6.552    157.513 
  4043.600      6.917    156.381 
  4043.800      6.435    154.017 
  4044.000      5.847    155.082 
  4044.200      4.379    154.102 
  4044.400      4.326    154.089 
  4044.600      4.576    154.564 
  4044.800      4.464    154.437 
  4045.000      4.555    154.904 
  4045.200      4.633    154.672 
  4045.400      4.756    155.307 
  4045.600      4.806    155.806 
  4045.800      5.283    156.427 
