~Version Information
#-------------------
VERS.        2.0: CWLS log ASCII Standart - VERSION 2.0
WRAP.         NO: One line per depth step
~Well Information Block
#----------------------
#MNEM.UNIT  VALUE: DESCRIPTION
#----.---- -------: -------------
STRT.м                           3810: Начальная глубина
STOP.м                           4124: Конечная глубина
STEP.м                            0.2: Шаг квантования
NULL.                        -9999.99: Код отсутствия
COMP.               OOO "LUKOIL-Komi": Название организации
WELL.                             516: Наименование скважины
FLD .                     Inzyreyskoe: Наименование площади
LOC .                             NAO: Расположение скважины
CTRY.                          Russia: Название страны
SRVC.                            PNGG: Наим.орг-ции, проводившей каротаж
DATE.                        09.09.07: Дата регистрации каротажных данных
UWI .                                : Уникальный идентификатор скважины
~Parameter Information
#---------------------
#MNEM.UNIT      VALUE: DESCRIPTION
#----.----    -------: ---------------
FL  .       -9999.99: Расположение месторождения
~Curve Information Block
#-----------------------
#MNEM.UNIT          : CURVE DESCRIPTION
#---.----          : -----------------
DEPT.м             : Колонка глубины
GK  .UR/HR         : Гамма каротаж
DS  .MM            : Каверномер
~Other Information
#-----------------
tool=ДРСТ+локатор
mode=ГК отрицат.
id=18
~Ascii Log Data
# ...
  3904.400     11.196    160.348 
  3904.600     10.401    160.504 
  3904.800     10.216    160.091 
  3905.000      9.815    160.706 
  3905.200      9.474    160.855 
  3905.400      8.720    161.002 
  3905.600      7.765    160.561 
  3905.800      7.242    161.317 
  3906.000      7.166    160.971 
  3906.200      7.812    161.834 
  3906.400      8.594    160.121 
  3906.600      9.488    161.099 
  3906.800     10.020    161.392 
  3907.000     10.804    163.002 
  3907.200     11.423    164.094 
  3907.400     11.963    178.493 
  3907.600     12.256    209.550 
  3907.800     12.158    159.537 
  3908.000     11.321    159.483 
  3908.200     10.007    159.443 
  3908.400      9.619    159.294 
  3908.600     10.674    159.276 
  3908.800     11.337    159.248 
  3909.000     11.838    159.215 
  3909.200     12.529    159.520 
  3909.400     12.676    159.816 
  3909.600     13.030    161.544 
  3909.800     13.429    161.552 
  3910.000     13.178    161.599 
  3910.200     12.974    161.603 
  3910.400     12.794    162.048 
  3910.600     12.681    163.978 
  3910.800     12.567    181.753 
  3911.000     12.595    201.679 
  3911.200     12.863    174.353 
  3911.400     13.370    161.162 
  3911.600     13.197    158.815 
  3911.800     12.655    160.419 
  3912.000     12.030    161.081 
  3912.200     11.328    161.382 
  3912.400     10.673    161.115 
  3912.600     10.044    160.414 
  3912.800      9.673    162.549 
  3913.000      9.094    175.194 
  3913.200      8.309    175.669 
  3913.400      7.518    163.755 
  3913.600      7.344    160.503 
  3913.800      7.227    159.978 
  3914.000      7.080    161.839 
  3914.200      6.431    160.095 
  3914.400      5.879    163.369 
  3914.600      5.280    181.266 
  3914.800      4.788    193.787 
  3915.000      4.723    187.093 
  3915.200      5.088    189.245 
  3915.400      5.599    165.130 
  3915.600      6.087    162.864 
  3915.800      6.669    161.499 
  3916.000      7.144    161.591 
  3916.200      7.757    164.897 
  3916.400      8.370    173.452 
  3916.600      9.479    170.362 
  3916.800     10.812    166.972 
  3917.000     12.248    169.715 
  3917.200     14.333    171.996 
  3917.400     15.562    173.436 
  3917.600     15.794    167.783 
  3917.800     15.490    172.360 
  3918.000     15.156    171.715 
  3918.200     15.114    185.674 
  3918.400     14.607    199.042 
  3918.600     14.433    188.890 
  3918.800     13.997    182.517 
  3919.000     13.598    176.211 
  3919.200     12.609    160.074 
  3919.400     11.715    161.024 
  3919.600     10.748    160.779 
  3919.800     10.406    160.931 
  3920.000     11.210    162.223 
  3920.200     11.791    170.085 
  3920.400     11.621    178.571 
  3920.600     10.775    184.445 
  3920.800     10.050    176.711 
  3921.000     10.627    166.475 
  3921.200     11.539    159.537 
  3921.400     12.301    159.449 
  3921.600     12.209    159.437 
  3921.800     11.820    159.485 
  3922.000     11.545    159.474 
  3922.200     11.240    159.465 
  3922.400     10.468    159.551 
  3922.600      9.913    159.325 
  3922.800     10.044    159.111 
  3923.000     10.428    159.486 
  3923.200     10.649    159.541 
  3923.400     11.151    159.039 
  3923.600     11.758    161.935 
  3923.800     12.644    169.200 
  3924.000     13.702    162.875 
  3924.200     13.934    168.913 
  3924.400     13.663    175.574 
  3924.600     13.225    184.372 
  3924.800     13.791    175.696 
  3925.000     13.553    178.501 
  3925.200     12.973    183.501 
  3925.400     12.408    183.196 
  3925.600     12.019    188.466 
  3925.800     11.570    170.287 
  3926.000     10.574    163.506 
  3926.200      9.548    175.554 
  3926.400      9.663    163.520 
  3926.600     10.756    162.952 
  3926.800     11.940    166.794 
  3927.000     13.085    169.978 
  3927.200     13.159    176.050 
  3927.400     14.011    176.888 
  3927.600     15.495    178.195 
  3927.800     16.056    181.005 
  3928.000     16.443    179.202 
  3928.200     16.721    187.890 
  3928.400     16.375    204.992 
  3928.600     15.281    187.005 
  3928.800     14.395    185.337 
  3929.000     14.425    190.217 
  3929.200     14.228    177.484 
  3929.400     13.949    177.115 
  3929.600     13.889    192.556 
  3929.800     13.701    207.267 
  3930.000     13.400    202.099 
  3930.200     13.519    181.219 
  3930.400     13.441    167.420 
  3930.600     13.121    166.873 
  3930.800     12.553    165.563 
  3931.000     12.696    163.868 
  3931.200     11.884    162.689 
  3931.400     10.508    163.346 
  3931.600      9.572    163.693 
  3931.800      8.704    163.786 
  3932.000      8.268    164.687 
  3932.200      8.580    163.828 
  3932.400      8.615    163.794 
  3932.600      8.340    164.020 
  3932.800      8.091    163.202 
  3933.000      7.780    162.434 
  3933.200      7.512    162.654 
  3933.400      7.581    163.850 
  3933.600      7.505    160.025 
  3933.800      7.553    160.524 
  3934.000      7.758    161.042 
  3934.200      7.717    159.930 
  3934.400      7.987    159.578 
  3934.600      7.711    159.150 
  3934.800      7.469    159.074 
  3935.000      7.338    159.145 
  3935.200      7.690    159.191 
  3935.400      8.113    159.410 
  3935.600      7.687    159.454 
  3935.800      7.872    159.495 
  3936.000      7.655    159.488 
  3936.200      7.575    159.309 
  3936.400      7.129    160.453 
  3936.600      6.753    160.568 
  3936.800      7.285    160.620 
  3937.000      8.066    160.400 
  3937.200      8.374    160.551 
  3937.400      8.750    160.565 
  3937.600      9.003    160.684 
  3937.800      8.681    160.678 
  3938.000      8.597    162.184 
  3938.200      8.397    176.072 
  3938.400      9.145    162.558 
  3938.600     10.209    162.472 
  3938.800     10.512    164.057 
  3939.000     10.515    165.162 
  3939.200     10.171    168.493 
  3939.400      9.829    163.090 
  3939.600     10.149    162.591 
  3939.800     10.332    161.710 
  3940.000     10.570    162.564 
  3940.200     10.422    162.381 
  3940.400     10.364    161.546 
  3940.600     10.570    163.728 
  3940.800     10.887    163.531 
  3941.000     10.810    163.779 
  3941.200     11.292    164.435 
  3941.400     12.228    164.826 
  3941.600     12.532    166.446 
  3941.800     11.927    165.976 
  3942.000     11.693    165.856 
  3942.200     11.778    165.166 
  3942.400     12.072    164.285 
  3942.600     12.206    164.049 
  3942.800     12.021    164.301 
  3943.000     11.638    169.222 
  3943.200     11.496    163.622 
  3943.400     11.405    163.951 
  3943.600     10.996    163.148 
  3943.800     10.333    162.676 
  3944.000      9.715    163.630 
  3944.200      9.214    163.785 
  3944.400      8.686    163.759 
  3944.600      8.890    164.277 
  3944.800      9.215    164.801 
  3945.000      9.341    165.415 
  3945.200      9.532    164.278 
  3945.400      9.460    163.322 
  3945.600      9.799    162.285 
  3945.800      9.416    163.234 
  3946.000      9.237    163.617 
  3946.200      9.389    162.805 
  3946.400      9.844    163.593 
  3946.600     10.414    164.790 
  3946.800     10.632    164.955 
  3947.000     10.191    164.065 
  3947.200     10.076    164.180 
  3947.400     10.274    164.505 
  3947.600     10.779    164.571 
  3947.800     11.085    164.392 
  3948.000     11.398    167.858 
  3948.200     11.468    163.489 
  3948.400     11.739    168.137 
  3948.600     11.513    182.052 
  3948.800     11.705    168.242 
  3949.000     12.441    165.237 
  3949.200     12.057    171.745 
  3949.400     11.923    186.607 
  3949.600     11.536    207.844 
  3949.800     11.301    164.439 
  3950.000     11.389    165.287 
  3950.200     10.803    164.802 
  3950.400     10.519    166.289 
  3950.600     10.876    167.905 
  3950.800     11.290    166.676 
  3951.000     12.201    171.207 
  3951.200     12.187    162.366 
  3951.400     11.801    162.408 
