~Version Information
#-------------------
VERS.        2.0: CWLS log ASCII Standart - VERSION 2.0
WRAP.         NO: One line per depth step
~Well Information Block
#----------------------
#MNEM.UNIT  VALUE: DESCRIPTION
#----.---- -------: -------------
STRT.м                           3810: Начальная глубина
STOP.м                           4124: Конечная глубина
STEP.м                            0.2: Шаг квантования
NULL.                        -9999.99: Код отсутствия
COMP.               OOO "LUKOIL-Komi": Название организации
WELL.                             516: Наименование скважины
FLD .                     Inzyreyskoe: Наименование площади
LOC .                             NAO: Расположение скважины
CTRY.                          Russia: Название страны
SRVC.                            PNGG: Наим.орг-ции, проводившей каротаж
DATE.                        09.09.07: Дата регистрации каротажных данных
UWI .                                : Уникальный идентификатор скважины
~Parameter Information
#---------------------
#MNEM.UNIT      VALUE: DESCRIPTION
#----.----    -------: ---------------
FL  .       -9999.99: Расположение месторождения
~Curve Information Block
#-----------------------
#MNEM.UNIT          : CURVE DESCRIPTION
#---.----          : -----------------
DEPT.м             : Колонка глубины
GK  .UR/HR         : Гамма каротаж
DS  .MM            : Каверномер
~Other Information
#-----------------
tool=ДРСТ+локатор
mode=ГК отрицат.
id=18
~Ascii Log Data
# ...
  3951.600     11.294    162.380 
  3951.800     10.891    163.217 
  3952.000     10.830    163.263 
  3952.200     11.360    162.888 
  3952.400     11.470    163.247 
  3952.600     11.079    163.239 
  3952.800     11.403    163.478 
  3953.000     11.666    163.409 
  3953.200     11.724    163.742 
  3953.400     11.824    164.902 
  3953.600     12.286    181.705 
  3953.800     12.153    189.191 
  3954.000     12.344    162.272 
  3954.200     12.128    161.452 
  3954.400     11.457    161.351 
  3954.600     11.346    161.342 
  3954.800     11.738    161.367 
  3955.000     11.503    161.206 
  3955.200     11.447    161.196 
  3955.400     11.457    161.317 
  3955.600     12.101    162.329 
  3955.800     12.545    162.141 
  3956.000     12.661    163.614 
  3956.200     12.526    161.957 
  3956.400     12.328    163.471 
  3956.600     12.460    170.749 
  3956.800     13.135    167.760 
  3957.000     13.764    167.641 
  3957.200     13.792    168.622 
  3957.400     13.531    166.149 
  3957.600     12.859    165.273 
  3957.800     12.323    165.072 
  3958.000     11.682    167.413 
  3958.200     11.411    176.633 
  3958.400     11.290    177.932 
  3958.600     11.050    171.485 
  3958.800     10.949    174.293 
  3959.000     10.257    169.979 
  3959.200      9.380    170.644 
  3959.400      8.825    171.586 
  3959.600      8.757    185.769 
  3959.800      9.064    188.440 
  3960.000      8.931    165.727 
  3960.200      8.385    165.850 
  3960.400      7.742    165.756 
  3960.600      7.535    165.634 
  3960.800      7.449    165.927 
  3961.000      7.418    166.878 
  3961.200      7.142    166.229 
  3961.400      6.894    166.451 
  3961.600      6.795    166.634 
  3961.800      6.628    166.641 
  3962.000      6.680    166.695 
  3962.200      6.826    166.621 
  3962.400      6.669    166.492 
  3962.600      6.671    166.709 
  3962.800      7.163    166.672 
  3963.000      7.842    167.913 
  3963.200      8.669    168.652 
  3963.400      9.760    169.092 
  3963.600     10.105    169.108 
  3963.800     10.136    169.689 
  3964.000     10.301    169.681 
  3964.200     10.478    170.238 
  3964.400     10.738    180.726 
  3964.600     11.397    189.423 
  3964.800     12.311    190.318 
  3965.000     13.179    191.054 
  3965.200     13.865    184.529 
  3965.400     14.401    194.405 
  3965.600     15.207    191.834 
  3965.800     15.657    195.025 
  3966.000     16.150    197.857 
  3966.200     17.234    210.281 
  3966.400     18.027    219.279 
  3966.600     18.081    217.844 
  3966.800     17.901    207.214 
  3967.000     17.108    184.071 
  3967.200     16.880    193.279 
  3967.400     17.143    188.164 
  3967.600     16.958    188.654 
  3967.800     16.688    193.219 
  3968.000     15.518    203.259 
  3968.200     14.893    169.708 
  3968.400     13.965    170.327 
  3968.600     13.482    171.377 
  3968.800     13.302    174.230 
  3969.000     13.396    200.274 
  3969.200     13.119    207.259 
  3969.400     13.271    219.735 
  3969.600     13.748    202.913 
  3969.800     13.529    181.747 
  3970.000     13.525    173.564 
  3970.200     13.629    171.193 
  3970.400     14.031    171.257 
  3970.600     14.105    171.308 
  3970.800     14.544    171.303 
  3971.000     15.267    171.345 
  3971.200     15.972    171.428 
  3971.400     16.820    171.326 
  3971.600     17.869    171.283 
  3971.800     18.484    171.303 
  3972.000     17.704    171.710 
  3972.200     14.719    172.685 
  3972.400     12.562    174.210 
  3972.600     12.584    177.160 
  3972.800     12.922    187.605 
  3973.000     13.907    198.633 
  3973.200     14.609    199.381 
  3973.400     15.384    177.239 
  3973.600     16.012    185.024 
  3973.800     16.567    194.601 
  3974.000     17.033    214.467 
  3974.200     17.298    220.913 
  3974.400     17.278    218.680 
  3974.600     17.516    224.983 
  3974.800     17.885    244.168 
  3975.000     18.698    246.712 
  3975.200     19.623    246.787 
  3975.400     20.177    210.533 
  3975.600     21.055    211.741 
  3975.800     21.255    205.527 
  3976.000     19.476    190.951 
  3976.200     17.606    188.325 
  3976.400     16.993    184.215 
  3976.600     16.436    184.099 
  3976.800     16.498    184.963 
  3977.000     16.343    186.193 
  3977.200     16.658    190.655 
  3977.400     16.398    209.610 
  3977.600     16.730    187.065 
  3977.800     17.326    195.359 
  3978.000     17.904    198.816 
  3978.200     18.578    209.846 
  3978.400     18.615    205.414 
  3978.600     19.178    207.970 
  3978.800     19.499    212.408 
  3979.000     19.131    227.115 
  3979.200     18.724    236.009 
  3979.400     17.925    232.187 
  3979.600     17.586    200.904 
  3979.800     17.462    217.786 
  3980.000     16.938    210.862 
  3980.200     16.404    223.236 
  3980.400     14.773    236.953 
  3980.600     13.836    201.931 
  3980.800     12.323    169.465 
  3981.000     11.044    166.752 
  3981.200     10.056    164.306 
  3981.400     10.037    163.490 
  3981.600     10.189    163.384 
  3981.800     10.737    163.526 
  3982.000     11.009    163.536 
  3982.200     11.303    163.543 
  3982.400     11.352    163.558 
  3982.600     11.585    163.462 
  3982.800     11.949    163.483 
  3983.000     12.296    163.641 
  3983.200     12.697    163.474 
  3983.400     13.100    163.570 
  3983.600     13.513    163.566 
  3983.800     13.914    163.504 
  3984.000     14.250    163.236 
  3984.200     14.419    163.394 
  3984.400     14.107    163.407 
  3984.600     14.486    163.584 
  3984.800     14.555    163.478 
  3985.000     14.631    163.636 
  3985.200     14.538    163.486 
  3985.400     14.462    163.533 
  3985.600     14.444    163.610 
  3985.800     14.115    163.425 
  3986.000     14.170    163.584 
  3986.200     14.234    163.421 
  3986.400     14.073    163.598 
  3986.600     13.906    163.478 
  3986.800     13.767    163.598 
  3987.000     13.610    164.563 
  3987.200     13.237    165.177 
  3987.400     12.882    165.525 
  3987.600     12.782    165.319 
  3987.800     12.687    165.500 
  3988.000     12.173    165.562 
  3988.200     11.888    165.632 
  3988.400     11.001    165.789 
  3988.600     10.673    166.591 
  3988.800     10.390    166.409 
  3989.000      9.549    166.021 
  3989.200      8.541    166.713 
  3989.400      7.965    166.990 
  3989.600      6.974    168.094 
  3989.800      6.078    167.833 
  3990.000      4.741    167.968 
  3990.200      3.583    168.173 
  3990.400      3.348    168.255 
  3990.600      3.443    168.158 
  3990.800      3.689    168.401 
  3991.000      3.786    168.953 
  3991.200      4.052    168.976 
  3991.400      4.274    169.982 
  3991.600      4.489    172.322 
  3991.800      4.814    173.392 
  3992.000      5.337    173.908 
  3992.200      6.122    173.878 
  3992.400      7.108    174.041 
  3992.600      8.327    175.340 
  3992.800      9.951    176.050 
  3993.000     11.917    178.528 
  3993.200     14.184    189.150 
  3993.400     17.060    200.192 
  3993.600     20.373    210.454 
  3993.800     23.005    206.650 
  3994.000     23.220    209.122 
  3994.200     22.962    223.949 
  3994.400     22.865    206.964 
  3994.600     22.495    213.310 
  3994.800     22.599    220.984 
  3995.000     22.464    216.070 
  3995.200     22.474    217.521 
  3995.400     22.191    226.126 
  3995.600     21.769    212.859 
  3995.800     21.487    219.588 
  3996.000     21.443    213.848 
  3996.200     21.743    217.191 
  3996.400     21.545    220.812 
  3996.600     21.101    224.173 
  3996.800     20.394    233.768 
  3997.000     19.873    220.056 
  3997.200     19.608    212.299 
  3997.400     19.959    214.943 
  3997.600     20.378    205.450 
  3997.800     20.174    219.199 
  3998.000     20.032    217.799 
  3998.200     20.131    224.170 
  3998.400     19.752    245.256 
  3998.600     19.642    217.675 
